country,state,city,station,last_update,latitude,longitude,pollutant_id,pollutant_min,pollutant_max,pollutant_avg
India,Assam,Guwahati,"IITG, Guwahati - PCBA","05-10-2025 09:00:00",26.2028636,91.70046436,PM10,15,41,29
India,Assam,Guwahati,"IITG, Guwahati - PCBA","05-10-2025 09:00:00",26.2028636,91.70046436,SO2,22,27,24
India,Assam,Guwahati,"IITG, Guwahati - PCBA","05-10-2025 09:00:00",26.2028636,91.70046436,CO,2,10,5
India,Assam,Guwahati,"LGBI Airport, Guwahati - PCBA","05-10-2025 09:00:00",26.10887,91.589544,SO2,11,13,12
India,Assam,Guwahati,"LGBI Airport, Guwahati - PCBA","05-10-2025 09:00:00",26.10887,91.589544,CO,27,40,33
India,Assam,Guwahati,"Pan Bazaar, Guwahati - PCBA","05-10-2025 09:00:00",26.187500,91.744194,PM10,4,23,14
India,Assam,Guwahati,"Railway Colony, Guwahati - PCBA","05-10-2025 09:00:00",26.181742,91.78063,SO2,28,29,29
India,Andhra_Pradesh,Tirumala,"Toll Gate, Tirumala - APPCB","05-10-2025 09:00:00",13.67,79.35,NH3,1,2,1
India,Andhra_Pradesh,Tirumala,"Toll Gate, Tirumala - APPCB","05-10-2025 09:00:00",13.67,79.35,OZONE,6,14,12
India,Andhra_Pradesh,Tirupati,"Vaikuntapuram, Tirupati - APPCB","05-10-2025 09:00:00",13.615387,79.409230,OZONE,32,36,34
India,Andhra_Pradesh,Vijayawada,"HB Colony, Vijayawada - APPCB","05-10-2025 09:00:00",16.536107,80.594233,PM2.5,60,70,64
India,Andhra_Pradesh,Vijayawada,"Rajiv Gandhi Park, Vijayawada - APPCB","05-10-2025 09:00:00",16.509717,80.612222,PM10,43,68,53
India,Andhra_Pradesh,Chittoor,"Gangineni Cheruvu, Chittoor - APPCB","05-10-2025 09:00:00",13.204880,79.097889,PM2.5,NA,NA,NA
India,Andhra_Pradesh,Chittoor,"Gangineni Cheruvu, Chittoor - APPCB","05-10-2025 09:00:00",13.204880,79.097889,NO2,NA,NA,NA
India,Andhra_Pradesh,Chittoor,"Gangineni Cheruvu, Chittoor - APPCB","05-10-2025 09:00:00",13.204880,79.097889,CO,NA,NA,NA
India,Andhra_Pradesh,Rajamahendravaram,"Anand Kala Kshetram, Rajamahendravaram - APPCB","05-10-2025 09:00:00",16.9872867,81.7363176,NH3,2,3,2
India,Andhra_Pradesh,Rajamahendravaram,"Anand Kala Kshetram, Rajamahendravaram - APPCB","05-10-2025 09:00:00",16.9872867,81.7363176,CO,11,42,16
India,Bihar,Aurangabad,"Gurdeo Nagar, Aurangabad - BSPCB","05-10-2025 09:00:00",24.75746,84.366208,PM2.5,NA,NA,NA
India,Bihar,Begusarai,"Lohiyanagar, Begusarai - BSPCB","05-10-2025 09:00:00",25.42742023,86.13886079,PM2.5,8,32,19
India,Bihar,Begusarai,"Lohiyanagar, Begusarai - BSPCB","05-10-2025 09:00:00",25.42742023,86.13886079,NH3,3,4,4
India,Bihar,Bettiah,"Kamalnath Nagar, Bettiah - BSPCB","05-10-2025 09:00:00",26.80365,84.51954,NO2,4,9,7
India,Andhra_Pradesh,Vijayawada,"Rajiv Gandhi Park, Vijayawada - APPCB","05-10-2025 09:00:00",16.509717,80.612222,NH3,NA,NA,NA
India,Andhra_Pradesh,Vijayawada,"Rajiv Gandhi Park, Vijayawada - APPCB","05-10-2025 09:00:00",16.509717,80.612222,SO2,17,19,17
India,Andhra_Pradesh,Vijayawada,"Rajiv Nagar, Vijayawada - APPCB","05-10-2025 09:00:00",16.554731,80.649110,NO2,6,6,6
India,Andhra_Pradesh,Vijayawada,"Rajiv Nagar, Vijayawada - APPCB","05-10-2025 09:00:00",16.554731,80.649110,OZONE,59,75,66
India,Bihar,"Bihar Sharif","D M Colony, Bihar Sharif - BSPCB","05-10-2025 09:00:00",25.204762,85.514960,PM10,56,74,65
India,Bihar,Buxar,"Charitra Van, Buxar - BSPCB","05-10-2025 09:00:00",25.567520,83.966379,PM2.5,NA,NA,NA
India,Bihar,Buxar,"Charitra Van, Buxar - BSPCB","05-10-2025 09:00:00",25.567520,83.966379,NO2,NA,NA,NA
India,Bihar,Buxar,"Charitra Van, Buxar - BSPCB","05-10-2025 09:00:00",25.567520,83.966379,CO,NA,NA,NA
India,Assam,Nagaon,"Christianpatty, Nagaon - PCBA","05-10-2025 09:00:00",26.349082,92.68449,PM2.5,53,58,56
India,Assam,Nagaon,"Christianpatty, Nagaon - PCBA","05-10-2025 09:00:00",26.349082,92.68449,OZONE,8,9,9
India,Assam,Sivasagar,"Girls College, Sivasagar - PCBA","05-10-2025 09:00:00",26.987634,94.636574,PM2.5,14,20,16
India,Arunachal_Pradesh,Naharlagun,"Naharlagun, Naharlagun - APSPCB","05-10-2025 09:00:00",27.103358,93.679645,PM2.5,2,36,13
India,Arunachal_Pradesh,Naharlagun,"Naharlagun, Naharlagun - APSPCB","05-10-2025 09:00:00",27.103358,93.679645,CO,5,11,6
India,Bihar,Gaya,"SFTI Kusdihra, Gaya - BSPCB","05-10-2025 09:00:00",24.762518,84.982348,PM10,13,31,19
India,Bihar,Sasaram,"Dada Peer, Sasaram - BSPCB","05-10-2025 09:00:00",24.952822,84.002396,SO2,1,5,3
India,Chandigarh,Chandigarh,"Sector 22, Chandigarh - CPCC","05-10-2025 09:00:00",30.735567,76.775714,PM2.5,25,107,59
India,Chandigarh,Chandigarh,"Sector 22, Chandigarh - CPCC","05-10-2025 09:00:00",30.735567,76.775714,NO2,9,40,25
India,Chandigarh,Chandigarh,"Sector-25, Chandigarh - CPCC","05-10-2025 09:00:00",30.751462,76.762879,SO2,4,20,10
India,Chandigarh,Chandigarh,"Sector-25, Chandigarh - CPCC","05-10-2025 09:00:00",30.751462,76.762879,CO,14,24,20
India,Chandigarh,Chandigarh,"Sector-53, Chandigarh - CPCC","05-10-2025 09:00:00",30.719859,76.738637,NO2,8,40,19
India,Chhattisgarh,Bhilai,"32Bungalows, Bhilai - CECB","05-10-2025 09:00:00",21.194815,81.314770,SO2,7,10,8
India,Chhattisgarh,Bhilai,"Civic Center, Bhilai - Bhilai Steel Plant","05-10-2025 09:00:00",21.185571,81.343175,NH3,3,3,3
India,Chhattisgarh,Bhilai,"Hathkhoj, Bhilai - CECB","05-10-2025 09:00:00",21.224231,81.408350,NO2,6,32,14
India,Bihar,Patna,"Muradpur, Patna - BSPCB","05-10-2025 09:00:00",25.619651,85.147382,SO2,9,10,10
India,Bihar,Purnia,"Mariam Nagar, Purnia - BSPCB","05-10-2025 09:00:00",25.366336,87.117468,PM10,NA,NA,NA
India,Bihar,Rajgir,"Dangi Tola, Rajgir - BSPCB","05-10-2025 09:00:00",25.03280,85.41948,NH3,6,7,6
India,Bihar,Samastipur,"DM Office_Kasipur, Samastipur - BSPCB","05-10-2025 09:00:00",25.859655,85.77944,SO2,18,30,24
India,Bihar,Patna,"Govt. High School Shikarpur, Patna - BSPCB","05-10-2025 09:00:00",25.592539,85.227158,PM2.5,21,40,30
India,Bihar,Patna,"Govt. High School Shikarpur, Patna - BSPCB","05-10-2025 09:00:00",25.592539,85.227158,NO2,14,19,16
India,Bihar,Patna,"IGSC Planetarium Complex, Patna - BSPCB","05-10-2025 09:00:00",25.610369,85.132568,PM2.5,55,78,68
India,Bihar,Patna,"IGSC Planetarium Complex, Patna - BSPCB","05-10-2025 09:00:00",25.610369,85.132568,SO2,1,25,19
India,Bihar,Muzaffarpur,"Muzaffarpur Collectorate, Muzaffarpur - BSPCB","05-10-2025 09:00:00",26.1209,85.3647,PM2.5,22,32,26
India,Bihar,Muzaffarpur,"Muzaffarpur Collectorate, Muzaffarpur - BSPCB","05-10-2025 09:00:00",26.1209,85.3647,SO2,4,5,4
India,Bihar,Katihar,"Mirchaibari, Katihar - BSPCB","05-10-2025 09:00:00",25.560083,87.553265,SO2,16,27,23
India,Bihar,Katihar,"Mirchaibari, Katihar - BSPCB","05-10-2025 09:00:00",25.560083,87.553265,CO,67,103,80
India,Bihar,Kishanganj,"SDM Office_Khagra, Kishanganj - BSPCB","05-10-2025 09:00:00",26.0881305,87.93840336,NH3,3,3,3
India,Bihar,Patna,"DRM Office Danapur, Patna - BSPCB","05-10-2025 09:00:00",25.586562,85.043586,OZONE,NA,NA,NA
India,Bihar,Patna,"Muradpur, Patna - BSPCB","05-10-2025 09:00:00",25.619651,85.147382,PM10,NA,NA,NA
India,Bihar,Patna,"Muradpur, Patna - BSPCB","05-10-2025 09:00:00",25.619651,85.147382,NO2,NA,NA,NA
India,Chhattisgarh,Raipur,"Bhatagaon New ISBT, Raipur - CECB","05-10-2025 09:00:00",21.219665,81.630094,PM10,14,37,25
India,Chhattisgarh,Raipur,"Bhatagaon New ISBT, Raipur - CECB","05-10-2025 09:00:00",21.219665,81.630094,NO2,7,17,11
India,Chhattisgarh,Raipur,"Bhatagaon New ISBT, Raipur - CECB","05-10-2025 09:00:00",21.219665,81.630094,SO2,4,6,5
India,Chhattisgarh,Raipur,"Bhatagaon New ISBT, Raipur - CECB","05-10-2025 09:00:00",21.219665,81.630094,CO,12,37,15
India,Chhattisgarh,Raipur,"Bhatagaon New ISBT, Raipur - CECB","05-10-2025 09:00:00",21.219665,81.630094,OZONE,8,19,11
India,Chhattisgarh,Raipur,"Krishak Nagar, Raipur - CECB","05-10-2025 09:00:00",21.237755,81.705301,NO2,NA,NA,NA
India,Chhattisgarh,Raipur,"Krishak Nagar, Raipur - CECB","05-10-2025 09:00:00",21.237755,81.705301,NH3,NA,NA,NA
India,Chhattisgarh,Raipur,"Krishak Nagar, Raipur - CECB","05-10-2025 09:00:00",21.237755,81.705301,OZONE,NA,NA,NA
India,Chhattisgarh,Raipur,"Siltara Phase-II, Raipur - CECB","05-10-2025 09:00:00",21.371751,81.664929,CO,12,36,31
India,Chhattisgarh,Korba,"Urja Nagar, Korba - CECB","05-10-2025 09:00:00",22.348441,82.549611,OZONE,35,36,36
India,Chhattisgarh,Kunjemura,"OP Jindal School, Kunjemura - CECB","05-10-2025 09:00:00",22.126650,83.483212,PM10,7,36,17
India,Chhattisgarh,Kunjemura,"OP Jindal School, Kunjemura - CECB","05-10-2025 09:00:00",22.126650,83.483212,SO2,1,11,4
India,Delhi,Delhi,"Aya Nagar, Delhi - IMD","05-10-2025 09:00:00",28.4706914,77.1099364,PM10,71,164,119
India,Delhi,Delhi,"Aya Nagar, Delhi - IMD","05-10-2025 09:00:00",28.4706914,77.1099364,CO,34,58,48
India,Delhi,Delhi,"Bawana, Delhi - DPCC","05-10-2025 09:00:00",28.776200,77.051074,CO,47,78,58
India,Chhattisgarh,Korba,"Rampur, Korba - CECB","05-10-2025 09:00:00",22.368195,82.746431,PM2.5,11,11,11
India,Chhattisgarh,Korba,"Urja Nagar, Korba - CECB","05-10-2025 09:00:00",22.348441,82.549611,PM2.5,16,22,17
India,Chhattisgarh,Milupara,"Govt. Higher Secondary School, Milupara - CECB","05-10-2025 09:00:00",22.1910172,83.5197009,PM10,NA,NA,NA
India,Chhattisgarh,Milupara,"Govt. Higher Secondary School, Milupara - CECB","05-10-2025 09:00:00",22.1910172,83.5197009,SO2,NA,NA,NA
India,Delhi,Delhi,"Alipur, Delhi - DPCC","05-10-2025 09:00:00",28.815329,77.153010,NO2,11,43,27
India,Delhi,Delhi,"Alipur, Delhi - DPCC","05-10-2025 09:00:00",28.815329,77.153010,NH3,3,6,4
India,Chhattisgarh,Bilaspur,"Mangala, Bilaspur - NTPC","05-10-2025 09:00:00",22.08815,82.13737,PM2.5,4,30,14
India,Delhi,Delhi,"Ashok Vihar, Delhi - DPCC","05-10-2025 09:00:00",28.695381,77.181665,CO,24,75,60
India,Chhattisgarh,Raipur,"AIIMS, Raipur - CECB","05-10-2025 09:00:00",21.258815,81.578979,NH3,5,5,5
India,Delhi,Delhi,"Dr. Karni Singh Shooting Range, Delhi - DPCC","05-10-2025 09:00:00",28.498571,77.264840,CO,1,104,23
India,Delhi,Delhi,"Dr. Karni Singh Shooting Range, Delhi - DPCC","05-10-2025 09:00:00",28.498571,77.264840,OZONE,6,92,14
India,Delhi,Delhi,"Dwarka-Sector 8, Delhi - DPCC ","05-10-2025 09:00:00",28.5710274,77.0719006,NO2,25,120,63
India,Delhi,Delhi,"Dwarka-Sector 8, Delhi - DPCC ","05-10-2025 09:00:00",28.5710274,77.0719006,OZONE,15,95,17
India,Delhi,Delhi,"IHBAS, Dilshad Garden, Delhi - CPCB","05-10-2025 09:00:00",28.6811736,77.3025234,PM10,125,169,146
India,Delhi,Delhi,"Major Dhyan Chand National Stadium, Delhi - DPCC","05-10-2025 09:00:00",28.611281,77.237738,CO,4,103,42
India,Delhi,Delhi,"Mandir Marg, Delhi - DPCC","05-10-2025 09:00:00",28.636429,77.201067,NO2,2,91,26
India,Delhi,Delhi,"Mandir Marg, Delhi - DPCC","05-10-2025 09:00:00",28.636429,77.201067,CO,20,74,47
India,Delhi,Delhi,"Mundka, Delhi - DPCC","05-10-2025 09:00:00",28.684678,77.076574,PM10,78,320,170
India,Delhi,Delhi,"Burari Crossing, Delhi - IMD","05-10-2025 09:00:00",28.7256504,77.2011573,NO2,5,32,22
India,Delhi,Delhi,"Burari Crossing, Delhi - IMD","05-10-2025 09:00:00",28.7256504,77.2011573,OZONE,12,150,24
India,Delhi,Delhi,"CRRI Mathura Road, Delhi - IMD","05-10-2025 09:00:00",28.5512005,77.2735737,OZONE,13,224,20
India,Delhi,Delhi,"DTU, Delhi - CPCB","05-10-2025 09:00:00",28.7500499,77.1112615,NO2,23,71,41
India,Delhi,Delhi,"Najafgarh, Delhi - DPCC","05-10-2025 09:00:00",28.570173,76.933762,PM2.5,52,243,109
India,Delhi,Delhi,"Najafgarh, Delhi - DPCC","05-10-2025 09:00:00",28.570173,76.933762,SO2,10,16,13
India,Delhi,Delhi,"Najafgarh, Delhi - DPCC","05-10-2025 09:00:00",28.570173,76.933762,CO,23,41,35
India,Delhi,Delhi,"Narela, Delhi - DPCC","05-10-2025 09:00:00",28.822836,77.101981,SO2,1,14,5
India,Delhi,Delhi,"Lodhi Road, Delhi - IITM","05-10-2025 09:00:00",28.588333,77.221667,PM10,53,110,88
India,Delhi,Delhi,"Lodhi Road, Delhi - IITM","05-10-2025 09:00:00",28.588333,77.221667,SO2,2,13,6
India,Delhi,Delhi,"Lodhi Road, Delhi - IMD","05-10-2025 09:00:00",28.5918245,77.2273074,PM10,86,158,113
India,Delhi,Delhi,"IHBAS, Dilshad Garden, Delhi - CPCB","05-10-2025 09:00:00",28.6811736,77.3025234,NH3,2,3,2
India,Delhi,Delhi,"IHBAS, Dilshad Garden, Delhi - CPCB","05-10-2025 09:00:00",28.6811736,77.3025234,SO2,19,33,25
India,Delhi,Delhi,"IHBAS, Dilshad Garden, Delhi - CPCB","05-10-2025 09:00:00",28.6811736,77.3025234,OZONE,10,20,13
India,Delhi,Delhi,"Jahangirpuri, Delhi - DPCC","05-10-2025 09:00:00",28.732820,77.170633,NO2,31,91,57
India,Delhi,Delhi,"Jawaharlal Nehru Stadium, Delhi - DPCC","05-10-2025 09:00:00",28.580280,77.233829,PM2.5,58,213,114
India,Delhi,Delhi,"NSIT Dwarka, Delhi - CPCB","05-10-2025 09:00:00",28.60909,77.0325413,PM10,99,159,129
India,Delhi,Delhi,"NSIT Dwarka, Delhi - CPCB","05-10-2025 09:00:00",28.60909,77.0325413,NH3,1,4,2
India,Gujarat,Ahmedabad,"Gyaspur, Ahmedabad - IITM","05-10-2025 09:00:00",22.977134,72.553024,NH3,2,6,2
India,Gujarat,Ahmedabad,"Maninagar, Ahmedabad - GPCB","05-10-2025 09:00:00",23.002657,72.591912,CO,18,36,25
India,Gujarat,Ahmedabad,"Raikhad, Ahmedabad - IITM","05-10-2025 09:00:00",23.020509,72.579261,PM2.5,25,112,51
India,Gujarat,Ahmedabad,"Rakhial, Ahmedabad - IITM","05-10-2025 09:00:00",23.016834,72.625775,SO2,12,104,31
India,Gujarat,Ahmedabad,"SAC ISRO Bopal, Ahmedabad - IITM","05-10-2025 09:00:00",23.041137,72.456691,CO,7,28,17
India,Gujarat,Ahmedabad,"SAC ISRO Satellite, Ahmedabad - IITM","05-10-2025 09:00:00",23.023389,72.515201,PM2.5,22,46,34
India,Gujarat,Ahmedabad,"SAC ISRO Satellite, Ahmedabad - IITM","05-10-2025 09:00:00",23.023389,72.515201,PM10,31,71,49
India,Gujarat,Ahmedabad,"SAC ISRO Satellite, Ahmedabad - IITM","05-10-2025 09:00:00",23.023389,72.515201,NO2,10,44,19
India,Delhi,Delhi,"Sri Aurobindo Marg, Delhi - DPCC","05-10-2025 09:00:00",28.531346,77.190156,CO,14,66,36
India,Delhi,Delhi,"Vivek Vihar, Delhi - DPCC","05-10-2025 09:00:00",28.672342,77.315260,CO,36,80,59
India,Delhi,Delhi,"Wazirpur, Delhi - DPCC","05-10-2025 09:00:00",28.699793,77.165453,SO2,18,29,23
India,Delhi,Delhi,"R K Puram, Delhi - DPCC","05-10-2025 09:00:00",28.563262,77.186937,PM2.5,78,315,186
India,Delhi,Delhi,"Rohini, Delhi - DPCC","05-10-2025 09:00:00",28.732528,77.119920,NO2,5,27,15
India,Delhi,Delhi,"Rohini, Delhi - DPCC","05-10-2025 09:00:00",28.732528,77.119920,CO,8,21,16
India,Delhi,Delhi,"Nehru Nagar, Delhi - DPCC","05-10-2025 09:00:00",28.567890,77.250515,PM10,72,156,119
India,Delhi,Delhi,"Nehru Nagar, Delhi - DPCC","05-10-2025 09:00:00",28.567890,77.250515,CO,2,71,14
India,Delhi,Delhi,"Sri Aurobindo Marg, Delhi - DPCC","05-10-2025 09:00:00",28.531346,77.190156,NO2,9,27,16
India,Delhi,Delhi,"Sri Aurobindo Marg, Delhi - DPCC","05-10-2025 09:00:00",28.531346,77.190156,NH3,3,5,4
India,Delhi,Delhi,"Punjabi Bagh, Delhi - DPCC","05-10-2025 09:00:00",28.674045,77.131023,CO,32,87,51
India,Delhi,Delhi,"Patparganj, Delhi - DPCC","05-10-2025 09:00:00",28.623763,77.287209,NO2,19,112,61
India,Delhi,Delhi,"Shadipur, Delhi - CPCB","05-10-2025 09:00:00",28.6514781,77.1473105,CO,34,103,50
India,Haryana,"Charkhi Dadri","Mini Secretariat, Charkhi Dadri - HSPCB","05-10-2025 09:00:00",28.593883,76.270653,NO2,9,22,15
India,Haryana,Dharuhera,"Municipal Corporation Office, Dharuhera -  HSPCB","05-10-2025 09:00:00",28.206800,76.799700,PM2.5,NA,NA,NA
India,Haryana,Dharuhera,"Municipal Corporation Office, Dharuhera -  HSPCB","05-10-2025 09:00:00",28.206800,76.799700,NH3,NA,NA,NA
India,Haryana,Faridabad,"Sector 11, Faridabad - HSPCB","05-10-2025 09:00:00",28.376058,77.315741,PM10,86,92,89
India,Haryana,Faridabad,"Sector 11, Faridabad - HSPCB","05-10-2025 09:00:00",28.376058,77.315741,NO2,30,32,31
India,Gujarat,Ahmedabad,"SVPI Airport Hansol, Ahmedabad - IITM","05-10-2025 09:00:00",23.076793,72.627874,NH3,1,1,1
India,Gujarat,Ahmedabad,"SVPI Airport Hansol, Ahmedabad - IITM","05-10-2025 09:00:00",23.076793,72.627874,CO,5,24,16
India,Gujarat,Ahmedabad,"SVPI Airport Hansol, Ahmedabad - IITM","05-10-2025 09:00:00",23.076793,72.627874,OZONE,1,41,4
India,Gujarat,Gandhinagar,"GIFT City, Gandhinagar - IITM","05-10-2025 09:00:00",23.163798,72.677768,PM2.5,14,49,31
India,Haryana,Karnal,"Sector-12, Karnal - HSPCB","05-10-2025 09:00:00",29.695300,77.002700,NO2,12,12,12
India,Haryana,Mandikhera,"General Hospital, Mandikhera - HSPCB","05-10-2025 09:00:00",27.9002,76.9938,OZONE,16,16,16
India,Haryana,Manesar,"Sector-2 IMT, Manesar - HSPCB","05-10-2025 09:00:00",28.360699,76.936090,PM2.5,44,154,96
India,Gujarat,Gandhinagar,"Sector-10, Gandhinagar - GPCB","05-10-2025 09:00:00",23.221714,72.654328,OZONE,1,38,17
India,Gujarat,Surat,"Science Center, Surat - SMC","05-10-2025 09:00:00",21.170046,72.795405,NO2,13,24,18
India,Gujarat,Vapi,"Phase-1 GIDC, Vapi - GPCB","05-10-2025 09:00:00",20.362421,72.918013,PM10,33,144,88
India,Haryana,Bahadurgarh,"Arya Nagar, Bahadurgarh - HSPCB","05-10-2025 09:00:00",28.6701,76.9254,CO,20,53,45
India,Haryana,Ballabgarh,"Nathu Colony, Ballabgarh - HSPCB","05-10-2025 09:00:00",28.3419248,77.319699,NH3,NA,NA,NA
India,Haryana,Ballabgarh,"Nathu Colony, Ballabgarh - HSPCB","05-10-2025 09:00:00",28.3419248,77.319699,CO,NA,NA,NA
India,Haryana,Ballabgarh,"Nathu Colony, Ballabgarh - HSPCB","05-10-2025 09:00:00",28.3419248,77.319699,OZONE,NA,NA,NA
India,Gujarat,Gandhinagar,"IIPHG Lekawada, Gandhinagar - IITM","05-10-2025 09:00:00",23.243639,72.68994,SO2,1,14,5
India,Haryana,Faridabad,"Sector 30, Faridabad - HSPCB","05-10-2025 09:00:00",28.4417,77.3217,PM2.5,40,43,42
India,Haryana,Gurugram,"Vikas Sadan, Gurugram - HSPCB","05-10-2025 09:00:00",28.4501238,77.0263051,CO,5,5,5
India,Jharkhand,Dhanbad,"Sardar Patel Nagar, Dhanbad - JSPCB","05-10-2025 09:00:00",23.80569,86.44268,PM10,NA,NA,NA
India,Jharkhand,Dhanbad,"Sardar Patel Nagar, Dhanbad - JSPCB","05-10-2025 09:00:00",23.80569,86.44268,NO2,91,155,96
India,Jharkhand,Dhanbad,"Sardar Patel Nagar, Dhanbad - JSPCB","05-10-2025 09:00:00",23.80569,86.44268,SO2,20,28,26
India,Jharkhand,Jorapokhar,"Tata Stadium, Jorapokhar - JSPCB","05-10-2025 09:00:00",23.707909,86.414670,PM10,NA,NA,NA
India,Jharkhand,Jorapokhar,"Tata Stadium, Jorapokhar - JSPCB","05-10-2025 09:00:00",23.707909,86.414670,SO2,NA,NA,NA
India,Karnataka,Bengaluru,"Bapuji Nagar, Bengaluru - KSPCB","05-10-2025 09:00:00",12.951913,77.539784,CO,22,152,31
India,Haryana,Palwal,"Shyam Nagar, Palwal - HSPCB","05-10-2025 09:00:00",28.1485564,77.3320667,CO,28,28,28
India,Haryana,Panchgaon,"Amity University, Panchgaon - IITM","05-10-2025 09:00:00",28.3153,76.9143,NO2,4,41,19
India,Haryana,Panchgaon,"Amity University, Panchgaon - IITM","05-10-2025 09:00:00",28.3153,76.9143,CO,5,44,22
India,Karnataka,Bengaluru,"Bapuji Nagar, Bengaluru - KSPCB","05-10-2025 09:00:00",12.951913,77.539784,OZONE,6,28,7
India,Karnataka,Bengaluru,"Hebbal, Bengaluru - KSPCB","05-10-2025 09:00:00",13.029152,77.585901,PM10,14,107,33
India,Karnataka,Bengaluru,"Hebbal, Bengaluru - KSPCB","05-10-2025 09:00:00",13.029152,77.585901,NO2,20,23,21
India,"Himachal Pradesh",Baddi,"HIMUDA Complex Phase-1, Baddi - HPPCB","05-10-2025 09:00:00",30.943887,76.801991,PM10,59,219,136
India,"Himachal Pradesh",Baddi,"HIMUDA Complex Phase-1, Baddi - HPPCB","05-10-2025 09:00:00",30.943887,76.801991,SO2,17,106,38
India,Jammu_and_Kashmir,Srinagar,"Rajbagh, Srinagar - JKSPCB","05-10-2025 09:00:00",34.066206,74.819820,SO2,3,4,3
India,Haryana,Manesar,"Sector-2 IMT, Manesar - HSPCB","05-10-2025 09:00:00",28.360699,76.936090,PM10,40,111,81
India,Haryana,Narnaul,"Shastri Nagar, Narnaul - HSPCB","05-10-2025 09:00:00",28.060249,76.113115,SO2,10,12,11
India,Haryana,Rohtak,"MD University, Rohtak - HSPCB","05-10-2025 09:00:00",28.52123,76.37138,NO2,32,41,36
India,Karnataka,Karwar,"KHB Colony, Karwar - KSPCB","05-10-2025 09:00:00",14.816666,74.141003,SO2,26,28,27
India,Karnataka,Koppal,"Diwator Nagar, Koppal - KSPCB","05-10-2025 09:00:00",15.347630,76.181767,NO2,NA,NA,NA
India,Karnataka,Ramanagara,"Vijay Nagar, Ramanagara - KSPCB","05-10-2025 09:00:00",12.733409,77.298051,PM2.5,NA,NA,NA
India,Karnataka,Ramanagara,"Vijay Nagar, Ramanagara - KSPCB","05-10-2025 09:00:00",12.733409,77.298051,CO,NA,NA,NA
India,Karnataka,Hubballi,"Lingaraj Nagar, Hubballi - KSPCB","05-10-2025 09:00:00",15.3714823,75.1160168,CO,10,16,14
India,Karnataka,Kalaburagi,"Mahatma Basaveswar Colony, Kalaburgi - KSPCB","05-10-2025 09:00:00",17.336318,76.847397,PM2.5,28,51,37
India,Karnataka,Kalaburagi,"Mahatma Basaveswar Colony, Kalaburgi - KSPCB","05-10-2025 09:00:00",17.336318,76.847397,PM10,37,72,48
India,Karnataka,Chamarajanagar,"Urban, Chamarajanagar - KSPCB","05-10-2025 09:00:00",11.55358,76.55521,NH3,2,2,2
India,Karnataka,Chikkaballapur,"Chikkaballapur Rural, Chikkaballapur - KSPCB","05-10-2025 09:00:00",13.428828,77.731418,PM10,NA,NA,NA
India,Karnataka,Bengaluru,"Peenya, Bengaluru - CPCB","05-10-2025 09:00:00",13.0270199,77.494094,CO,17,82,22
India,Karnataka,Bengaluru,"RVCE-Mailasandra, Bengaluru - KSPCB","05-10-2025 09:00:00",12.921418,77.502466,NH3,5,6,5
India,Karnataka,Bengaluru,"Sanegurava Halli, Bengaluru - KSPCB","05-10-2025 09:00:00",12.990328,77.5431385,CO,8,100,18
India,Karnataka,Bengaluru,"Shivapura_Peenya, Bengaluru - KSPCB","05-10-2025 09:00:00",13.0246342,77.5080115,PM10,43,200,79
India,Karnataka,Chikkamagaluru,"Kalyana Nagara, Chikkamagaluru - KSPCB","05-10-2025 09:00:00",13.328028,75.797056,PM2.5,NA,NA,NA
India,Karnataka,Chikkamagaluru,"Kalyana Nagara, Chikkamagaluru - KSPCB","05-10-2025 09:00:00",13.328028,75.797056,OZONE,15,39,15
India,Karnataka,Kalaburagi,"Mahatma Basaveswar Colony, Kalaburgi - KSPCB","05-10-2025 09:00:00",17.336318,76.847397,CO,31,64,33
India,Karnataka,Davanagere,"Devaraj Urs Badavane, Davanagere - KSPCB","05-10-2025 09:00:00",14.475800,75.905200,NO2,12,25,17
India,Karnataka,Karwar,"KHB Colony, Karwar - KSPCB","05-10-2025 09:00:00",14.816666,74.141003,PM10,3,31,13
India,Kerala,Kollam,"Polayathode, Kollam - Kerala PCB","05-10-2025 09:00:00",8.8787,76.6073,SO2,NA,NA,NA
India,Kerala,Kollam,"Polayathode, Kollam - Kerala PCB","05-10-2025 09:00:00",8.8787,76.6073,CO,NA,NA,NA
India,Kerala,Thiruvananthapuram,"Kariavattom, Thiruvananthapuram - Kerala PCB","05-10-2025 09:00:00",8.563700,76.886500,PM10,46,74,54
India,Kerala,Thiruvananthapuram,"Kariavattom, Thiruvananthapuram - Kerala PCB","05-10-2025 09:00:00",8.563700,76.886500,NO2,6,8,7
India,Kerala,Thrissur,"Corporation Ground, Thrissur - Kerala PCB","05-10-2025 09:00:00",10.532400,76.215900,SO2,1,1,1
India,"Madhya Pradesh",Bhopal,"Idgah Hills, Bhopal - MPPCB","05-10-2025 09:00:00",23.264759,77.381568,PM2.5,37,65,46
India,Karnataka,Yadgir,"Collector Office, Yadgir - KSPCB","05-10-2025 09:00:00",16.7602,77.1428,CO,NA,NA,NA
India,Kerala,Eloor,"Udyogamandal, Eloor - Kerala PCB","05-10-2025 09:00:00",10.073232,76.302765,PM10,42,65,48
India,Karnataka,Vijayapura,"Ibrahimpur, Vijayapura - KSPCB","05-10-2025 09:00:00",16.802639,75.722694,PM2.5,27,38,37
India,Karnataka,Vijayapura,"Ibrahimpur, Vijayapura - KSPCB","05-10-2025 09:00:00",16.802639,75.722694,NH3,1,2,1
India,Kerala,Thiruvananthapuram,"Plammoodu, Thiruvananthapuram - Kerala PCB","05-10-2025 09:00:00",8.5149093,76.9435879,PM2.5,8,307,87
India,"Madhya Pradesh",Bhopal,"Paryavaran Parisar, Bhopal - MPPCB","05-10-2025 09:00:00",23.210494,77.425409,PM10,27,48,37
India,Kerala,Thrissur,"Corporation Ground, Thrissur - Kerala PCB","05-10-2025 09:00:00",10.532400,76.215900,PM10,45,53,49
India,Karnataka,Shivamogga,"Vinoba Nagara, Shivamogga - KSPCB","05-10-2025 09:00:00",13.940000,75.555917,CO,6,34,22
India,Kerala,Kannur,"Thavakkara, Kannur - Kerala PCB","05-10-2025 09:00:00",11.875000,75.373200,NO2,12,17,14
India,"Madhya Pradesh",Gwalior,"Deen Dayal Nagar, Gwalior - MPPCB","05-10-2025 09:00:00",26.259242,78.216432,OZONE,37,94,55
India,"Madhya Pradesh",Gwalior,"Maharaj Bada, Gwalior - MPPCB","05-10-2025 09:00:00",26.200388,78.147714,SO2,5,10,7
India,"Madhya Pradesh",Indore,"Chhoti Gwaltoli, Indore - MPPCB","05-10-2025 09:00:00",22.4310,75.5213,PM10,55,101,74
India,"Madhya Pradesh",Indore,"Chhoti Gwaltoli, Indore - MPPCB","05-10-2025 09:00:00",22.4310,75.5213,NO2,48,71,57
India,"Madhya Pradesh",Indore,"Chhoti Gwaltoli, Indore - MPPCB","05-10-2025 09:00:00",22.4310,75.5213,NH3,7,8,8
India,"Madhya Pradesh",Katni,"Gole Bazar, Katni - MPPCB","05-10-2025 09:00:00",23.50016,80.23284,SO2,5,33,21
India,"Madhya Pradesh",Maihar,"Sahilara, Maihar - KJS Cements","05-10-2025 09:00:00",24.2613009,80.7231783,NO2,13,13,13
India,"Madhya Pradesh",Mandideep,"Sector-D Industrial Area, Mandideep - MPPCB","05-10-2025 09:00:00",23.108440,77.511428,PM2.5,46,77,60
India,"Madhya Pradesh",Mandideep,"Sector-D Industrial Area, Mandideep - MPPCB","05-10-2025 09:00:00",23.108440,77.511428,NO2,16,30,22
India,"Madhya Pradesh",Dewas,"Bhopal Chauraha, Dewas - MPPCB","05-10-2025 09:00:00",22.9682591,76.064118,NO2,1,70,53
India,"Madhya Pradesh",Dewas,"Bhopal Chauraha, Dewas - MPPCB","05-10-2025 09:00:00",22.9682591,76.064118,SO2,2,54,32
India,"Madhya Pradesh",Gwalior,"Deen Dayal Nagar, Gwalior - MPPCB","05-10-2025 09:00:00",26.259242,78.216432,PM10,14,175,66
India,"Madhya Pradesh",Jabalpur,"Gupteshwar, Jabalpur - JMC","05-10-2025 09:00:00",23.142888,79.916147,OZONE,8,39,31
India,"Madhya Pradesh",Jabalpur,"Marhatal, Jabalpur - MPPCB","05-10-2025 09:00:00",23.168606,79.932247,NO2,7,38,18
India,"Madhya Pradesh",Jabalpur,"Suhagi, Jabalpur - JMC","05-10-2025 09:00:00",23.218135,79.957770,PM10,10,67,27
India,"Madhya Pradesh",Indore,"Residency Area, Indore - IMC","05-10-2025 09:00:00",22.7084,75.8815,NO2,NA,NA,NA
India,"Madhya Pradesh",Indore,"Residency Area, Indore - IMC","05-10-2025 09:00:00",22.7084,75.8815,SO2,NA,NA,NA
India,"Madhya Pradesh",Jabalpur,"Govindh Bhavan Colony, Jabalpur - JMC","05-10-2025 09:00:00",23.163174,79.973061,NO2,19,20,19
India,"Madhya Pradesh",Jabalpur,"Govindh Bhavan Colony, Jabalpur - JMC","05-10-2025 09:00:00",23.163174,79.973061,CO,25,44,43
India,"Madhya Pradesh",Jabalpur,"Gupteshwar, Jabalpur - JMC","05-10-2025 09:00:00",23.142888,79.916147,CO,37,104,40
India,"Madhya Pradesh",Gwalior,"Deen Dayal Nagar, Gwalior - MPPCB","05-10-2025 09:00:00",26.259242,78.216432,NH3,4,7,5
India,"Madhya Pradesh",Katni,"Gole Bazar, Katni - MPPCB","05-10-2025 09:00:00",23.50016,80.23284,PM2.5,3,40,24
India,"Madhya Pradesh",Indore,"Regional Park, Indore - IMC","05-10-2025 09:00:00",22.6780,75.8559,CO,14,20,16
India,Maharashtra,Ahmednagar,"Tarakpur, Ahmednagar - MPCB","05-10-2025 09:00:00",19.10122,74.73339,CO,2,58,32
India,Maharashtra,Akola,"Ramdaspeth, Akola - MPCB","05-10-2025 09:00:00",20.719516,77.000253,SO2,10,11,10
India,Maharashtra,Amravati,"Shivneri Colony, Amravati - MPCB","05-10-2025 09:00:00",20.9402359,77.7895248,PM2.5,19,59,38
India,Maharashtra,Amravati,"Shivneri Colony, Amravati - MPCB","05-10-2025 09:00:00",20.9402359,77.7895248,NO2,6,18,10
India,Maharashtra,Amravati,"Shri Shivaji Science College, Amravati - MPCB","05-10-2025 09:00:00",20.939198,77.765701,NH3,1,1,1
India,Maharashtra,Aurangabad,"MIDC Chilkalthana, Aurangabad - MPCB","05-10-2025 09:00:00",19.875620,75.387310,PM2.5,14,52,28
India,Maharashtra,Aurangabad,"MIDC Chilkalthana, Aurangabad - MPCB","05-10-2025 09:00:00",19.875620,75.387310,NO2,6,47,13
India,Maharashtra,Bhiwandi,"Gokul Nagar, Bhiwandi - MPCB","05-10-2025 09:00:00",19.309073,73.057223,PM10,18,105,52
India,Maharashtra,Bhiwandi,"Gokul Nagar, Bhiwandi - MPCB","05-10-2025 09:00:00",19.309073,73.057223,NO2,20,31,25
India,Maharashtra,Bhiwandi,"Gokul Nagar, Bhiwandi - MPCB","05-10-2025 09:00:00",19.309073,73.057223,CO,29,46,41
India,Maharashtra,Boisar,"Khaira, Boisar - MPCB","05-10-2025 09:00:00",19.786089,72.757971,PM10,NA,NA,NA
India,Maharashtra,Boisar,"Khaira, Boisar - MPCB","05-10-2025 09:00:00",19.786089,72.757971,NO2,NA,NA,NA
India,Maharashtra,Chandrapur,"Chauhan Colony, Chandrapur - MPCB","05-10-2025 09:00:00",19.962900,79.298714,PM2.5,6,20,10
India,Maharashtra,Chandrapur,"Chauhan Colony, Chandrapur - MPCB","05-10-2025 09:00:00",19.962900,79.298714,NH3,3,3,3
India,"Madhya Pradesh",Pithampur,"Sector-2 Industrial Area, Pithampur - MPPCB","05-10-2025 09:00:00",22.624758,75.675238,PM2.5,64,156,92
India,"Madhya Pradesh",Pithampur,"Sector-2 Industrial Area, Pithampur - MPPCB","05-10-2025 09:00:00",22.624758,75.675238,PM10,56,129,84
India,"Madhya Pradesh",Pithampur,"Sector-2 Industrial Area, Pithampur - MPPCB","05-10-2025 09:00:00",22.624758,75.675238,SO2,22,25,23
India,"Madhya Pradesh",Ratlam,"Shasthri Nagar, Ratlam - IPCA Lab","05-10-2025 09:00:00",23.331731,75.045981,SO2,35,40,37
India,Maharashtra,Aurangabad,"More Chowk Waluj, Aurangabad - MPCB","05-10-2025 09:00:00",19.8389439,75.244448,SO2,14,17,15
India,Maharashtra,Aurangabad,"Rachnakar Colony, Aurangabad - MPCB","05-10-2025 09:00:00",19.863756,75.321188,PM2.5,11,218,61
India,Maharashtra,Aurangabad,"Rachnakar Colony, Aurangabad - MPCB","05-10-2025 09:00:00",19.863756,75.321188,PM10,10,134,47
India,Maharashtra,Aurangabad,"Rachnakar Colony, Aurangabad - MPCB","05-10-2025 09:00:00",19.863756,75.321188,SO2,4,26,16
India,Maharashtra,Badlapur,"Katrap, Badlapur - MPCB","05-10-2025 09:00:00",19.16485,73.23409,PM2.5,9,132,41
India,Maharashtra,Badlapur,"Katrap, Badlapur - MPCB","05-10-2025 09:00:00",19.16485,73.23409,SO2,3,16,12
India,Maharashtra,Belapur,"CBD Belapur, Belapur - MPCB","05-10-2025 09:00:00",19.0243902,73.0406721,SO2,1,5,2
India,Maharashtra,Dhule,"Deopur, Dhule - MPCB","05-10-2025 09:00:00",20.918946,74.776388,OZONE,9,59,11
India,Maharashtra,Jalgaon,"Prabhat Colony, Jalgaon - MPCB","05-10-2025 09:00:00",21.001264,75.565602,NH3,2,3,3
India,"Madhya Pradesh",Singrauli,"Suryakiran Bhawan NCL, Singrauli - MPPCB","05-10-2025 09:00:00",24.108970,82.645580,SO2,23,50,32
India,"Madhya Pradesh",Singrauli,"Suryakiran Bhawan NCL, Singrauli - MPPCB","05-10-2025 09:00:00",24.108970,82.645580,OZONE,10,36,15
India,Maharashtra,Kolhapur,"Shivaji University, Kolhapur - MPCB","05-10-2025 09:00:00",16.6870449,74.2505872,OZONE,3,17,7
India,Maharashtra,Chandrapur,"MIDC Khutala, Chandrapur - MPCB","05-10-2025 09:00:00",19.9775302,79.2337086,NO2,2,6,4
India,Maharashtra,Mumbai,"Chhatrapati Shivaji Intl. Airport (T2), Mumbai - MPCB","05-10-2025 09:00:00",19.10078,72.87462,NO2,30,43,36
India,Maharashtra,Mumbai,"Chhatrapati Shivaji Intl. Airport (T2), Mumbai - MPCB","05-10-2025 09:00:00",19.10078,72.87462,NH3,1,2,2
India,Maharashtra,Mumbai,"Chhatrapati Shivaji Intl. Airport (T2), Mumbai - MPCB","05-10-2025 09:00:00",19.10078,72.87462,SO2,20,21,21
India,Maharashtra,Mumbai,"Colaba, Mumbai - MPCB","05-10-2025 09:00:00",18.910000,72.820000,NH3,3,3,3
India,Maharashtra,Mumbai,"Colaba, Mumbai - MPCB","05-10-2025 09:00:00",18.910000,72.820000,SO2,NA,NA,NA
India,Maharashtra,Mumbai,"Colaba, Mumbai - MPCB","05-10-2025 09:00:00",18.910000,72.820000,CO,23,26,25
India,Maharashtra,Mumbai,"Deonar, Mumbai - IITM","05-10-2025 09:00:00",19.04946,72.9230,PM2.5,3,48,19
India,Maharashtra,Malegaon,"Mahesh Nagar, Malegaon - MPCB","05-10-2025 09:00:00",20.555712,74.529236,NO2,5,22,11
India,Maharashtra,Malegaon,"Mahesh Nagar, Malegaon - MPCB","05-10-2025 09:00:00",20.555712,74.529236,NH3,1,2,2
India,Maharashtra,Mira-Bhayandar,"Bhayandar West, Mira-Bhayandar - MPCB","05-10-2025 09:00:00",19.296481,72.840923,PM2.5,12,45,26
India,Maharashtra,Mira-Bhayandar,"Bhayandar West, Mira-Bhayandar - MPCB","05-10-2025 09:00:00",19.296481,72.840923,PM10,18,53,37
India,Maharashtra,Mira-Bhayandar,"Bhayandar West, Mira-Bhayandar - MPCB","05-10-2025 09:00:00",19.296481,72.840923,NO2,2,58,23
India,Maharashtra,Mumbai,"Borivali East, Mumbai - MPCB","05-10-2025 09:00:00",19.2243333,72.8658113,CO,2,3,2
India,Maharashtra,Mumbai,"Chakala-Andheri East, Mumbai - IITM","05-10-2025 09:00:00",19.11074,72.86084,OZONE,1,31,3
India,Maharashtra,Mumbai,"Ghatkopar, Mumbai - BMC","05-10-2025 09:00:00",19.083694,72.920967,CO,10,24,21
India,Maharashtra,Mumbai,"Kandivali East, Mumbai - MPCB","05-10-2025 09:00:00",19.205800,72.868200,PM10,30,86,56
India,Maharashtra,Mumbai,"Kandivali West, Mumbai - BMC","05-10-2025 09:00:00",19.215859,72.831718,NO2,6,23,14
India,Maharashtra,Mumbai,"Kandivali West, Mumbai - BMC","05-10-2025 09:00:00",19.215859,72.831718,OZONE,NA,NA,NA
India,Maharashtra,Mumbai,"Kherwadi_Bandra East, Mumbai - MPCB","05-10-2025 09:00:00",19.0632143,72.8456324,PM10,34,135,76
India,Maharashtra,Mahad,"Kamble Tarf Birwadi, Mahad - MPCB","05-10-2025 09:00:00",18.1023399,73.4783687,NO2,22,60,27
India,Maharashtra,Latur,"Sawe Wadi, Latur - MPCB","05-10-2025 09:00:00",18.39963,76.57452,PM2.5,4,20,12
India,Maharashtra,Mumbai,"Ghatkopar, Mumbai - BMC","05-10-2025 09:00:00",19.083694,72.920967,NO2,10,22,14
India,Maharashtra,Nagpur,"Opp GPO Civil Lines, Nagpur - MPCB","05-10-2025 09:00:00",21.152875,79.0517531,NO2,6,40,15
India,Maharashtra,Nagpur,"Opp GPO Civil Lines, Nagpur - MPCB","05-10-2025 09:00:00",21.152875,79.0517531,OZONE,4,20,10
India,Maharashtra,Nagpur,"Ram Nagar, Nagpur - MPCB","05-10-2025 09:00:00",21.143383,79.048912,NH3,4,6,5
India,Maharashtra,Nanded,"Sneh Nagar, Nanded - MPCB","05-10-2025 09:00:00",19.173852,77.296291,PM10,31,69,43
India,Maharashtra,Nanded,"Sneh Nagar, Nanded - MPCB","05-10-2025 09:00:00",19.173852,77.296291,SO2,1,1,1
India,Maharashtra,Nanded,"Sneh Nagar, Nanded - MPCB","05-10-2025 09:00:00",19.173852,77.296291,CO,26,74,34
India,Maharashtra,Nanded,"Sneh Nagar, Nanded - MPCB","05-10-2025 09:00:00",19.173852,77.296291,OZONE,10,46,15
India,Maharashtra,Nashik,"Gangapur Road, Nashik - MPCB","05-10-2025 09:00:00",20.0073285,73.7762427,PM10,21,66,43
India,Maharashtra,Nashik,"Gangapur Road, Nashik - MPCB","05-10-2025 09:00:00",20.0073285,73.7762427,NO2,5,5,5
India,Maharashtra,Nashik,"Gangapur Road, Nashik - MPCB","05-10-2025 09:00:00",20.0073285,73.7762427,OZONE,11,13,12
India,Maharashtra,Mumbai,"Vasai West, Mumbai - MPCB","05-10-2025 09:00:00",19.383200,72.820400,OZONE,12,24,16
India,Maharashtra,Mumbai,"Vile Parle West, Mumbai - MPCB","05-10-2025 09:00:00",19.10861,72.83622,PM10,NA,NA,NA
India,Maharashtra,Mumbai,"Vile Parle West, Mumbai - MPCB","05-10-2025 09:00:00",19.10861,72.83622,SO2,NA,NA,NA
India,Maharashtra,Nagpur,"Ambazari, Nagpur - MPCB","05-10-2025 09:00:00",21.121801,79.04952,NH3,2,7,3
India,Maharashtra,Nagpur,"Ambazari, Nagpur - MPCB","05-10-2025 09:00:00",21.121801,79.04952,SO2,11,16,12
India,Maharashtra,Nagpur,"Mahal, Nagpur - MPCB","05-10-2025 09:00:00",21.14472,79.107595,PM2.5,6,130,42
India,Maharashtra,Nagpur,"Mahal, Nagpur - MPCB","05-10-2025 09:00:00",21.14472,79.107595,PM10,28,187,62
India,Maharashtra,Mumbai,"Powai, Mumbai - MPCB","05-10-2025 09:00:00",19.137500,72.915056,OZONE,9,9,9
India,Maharashtra,Mumbai,"Sewri, Mumbai - BMC","05-10-2025 09:00:00",19.000084,72.856730,NH3,4,9,6
India,Maharashtra,Mumbai,"Shivaji Nagar, Mumbai - BMC","05-10-2025 09:00:00",19.060498,72.923356,NO2,26,48,35
India,Maharashtra,Mumbai,"Shivaji Nagar, Mumbai - BMC","05-10-2025 09:00:00",19.060498,72.923356,SO2,11,13,12
India,Maharashtra,Mumbai,"Siddharth Nagar-Worli, Mumbai - IITM","05-10-2025 09:00:00",19.000083,72.813993,PM10,22,87,47
India,Maharashtra,Mumbai,"Mazgaon, Mumbai - IITM","05-10-2025 09:00:00",18.96702,72.84214,NH3,7,13,9
India,Maharashtra,Mumbai,"Mindspace-Malad West, Mumbai - MPCB","05-10-2025 09:00:00",19.1878657,72.8304069,PM2.5,34,37,36
India,Maharashtra,Mumbai,"Mindspace-Malad West, Mumbai - MPCB","05-10-2025 09:00:00",19.1878657,72.8304069,NH3,6,6,6
India,Maharashtra,Mumbai,"Malad West, Mumbai - IITM","05-10-2025 09:00:00",19.19709,72.82204,OZONE,3,24,4
India,Maharashtra,Mumbai,"Mazgaon, Mumbai - IITM","05-10-2025 09:00:00",18.96702,72.84214,PM2.5,6,51,28
India,Maharashtra,Mumbai,"Mazgaon, Mumbai - IITM","05-10-2025 09:00:00",18.96702,72.84214,PM10,38,77,56
India,Maharashtra,Nashik,"Hirawadi, Nashik - MPCB","05-10-2025 09:00:00",20.021503,73.813844,PM2.5,10,37,21
India,Maharashtra,Nashik,"Hirawadi, Nashik - MPCB","05-10-2025 09:00:00",20.021503,73.813844,CO,29,40,32
India,Maharashtra,Nashik,"MIDC Ambad, Nashik - MPCB","05-10-2025 09:00:00",19.950220,73.731480,PM10,NA,NA,NA
India,Maharashtra,Mumbai,"Navy Nagar-Colaba, Mumbai - IITM","05-10-2025 09:00:00",18.897756,72.813320,NH3,4,11,6
India,Maharashtra,Mumbai,"Powai, Mumbai - MPCB","05-10-2025 09:00:00",19.137500,72.915056,PM2.5,15,37,25
India,Maharashtra,Mumbai,"Sion, Mumbai - MPCB","05-10-2025 09:00:00",19.047000,72.874600,CO,14,20,19
India,Maharashtra,Mumbai,"Kurla, Mumbai - MPCB","05-10-2025 09:00:00",19.0863,72.8888,NO2,4,6,5
India,Maharashtra,Pimpri-Chinchwad,"Park Street Wakad, Pimpri Chinchwad - MPCB","05-10-2025 09:00:00",18.59051,73.77946,SO2,2,3,2
India,Maharashtra,Pimpri-Chinchwad,"Park Street Wakad, Pimpri Chinchwad - MPCB","05-10-2025 09:00:00",18.59051,73.77946,OZONE,3,19,8
India,Maharashtra,Pimpri-Chinchwad,"Thergaon, Pimpri Chinchwad - MPCB","05-10-2025 09:00:00",18.616318,73.765797,OZONE,6,13,9
India,Maharashtra,Pune,"Bhumkar Nagar, Pune - IITM","05-10-2025 09:00:00",18.605770,73.749976,PM10,36,70,54
India,Maharashtra,Pune,"Hadapsar, Pune - IITM","05-10-2025 09:00:00",18.501793,73.927532,PM10,31,31,31
India,Maharashtra,Pune,"Katraj Dairy, Pune - MPCB","05-10-2025 09:00:00",18.454450,73.854155,SO2,2,4,4
India,Maharashtra,Pune,"Mhada Colony, Pune - IITM","05-10-2025 09:00:00",18.573040,73.927715,PM2.5,13,53,31
India,Maharashtra,Pune,"Mhada Colony, Pune - IITM","05-10-2025 09:00:00",18.573040,73.927715,PM10,53,79,60
India,Maharashtra,Pune,"Mhada Colony, Pune - IITM","05-10-2025 09:00:00",18.573040,73.927715,CO,24,111,37
India,Maharashtra,Sangli,"Vijay Nagar, Sangli - MPCB","05-10-2025 09:00:00"," 16.5038",74.3623,PM10,37,66,46
India,Maharashtra,Sangli,"Vijay Nagar, Sangli - MPCB","05-10-2025 09:00:00"," 16.5038",74.3623,SO2,4,7,6
India,Maharashtra,Sangli,"Vijay Nagar, Sangli - MPCB","05-10-2025 09:00:00"," 16.5038",74.3623,OZONE,11,29,14
India,Maharashtra,Solapur,"Dnyaneshwar Nagar, Solapur - MPCB","05-10-2025 09:00:00",17.6336264,75.9132495,PM2.5,14,53,31
India,Maharashtra,"Navi Mumbai","Sanpada, Navi Mumbai - MPCB","05-10-2025 09:00:00",19.0575752,73.0151367,PM2.5,11,36,23
India,Maharashtra,"Navi Mumbai","Sector-2E Kalamboli, Navi Mumbai - MPCB","05-10-2025 09:00:00",19.02579,73.10297,SO2,1,6,2
India,Maharashtra,"Navi Mumbai","Tondare-Taloja, Navi Mumbai - MPCB","05-10-2025 09:00:00",19.0630,73.1209,PM2.5,42,116,62
India,Maharashtra,"Navi Mumbai","Tondare-Taloja, Navi Mumbai - MPCB","05-10-2025 09:00:00",19.0630,73.1209,CO,21,35,32
India,Maharashtra,Parbhani,"Masoom Colony, Parbhani - MPCB","05-10-2025 09:00:00",19.265594,76.761463,NO2,7,82,23
India,Maharashtra,Nashik,"MIDC Ambad, Nashik - MPCB","05-10-2025 09:00:00",19.950220,73.731480,SO2,NA,NA,NA
India,Maharashtra,Nashik,"MIDC Ambad, Nashik - MPCB","05-10-2025 09:00:00",19.950220,73.731480,OZONE,15,39,15
India,Maharashtra,"Navi Mumbai","Kopripada-Vashi, Navi Mumbai - MPCB","05-10-2025 09:00:00",19.090337,73.014232,PM10,23,94,49
India,Maharashtra,Solapur,"Dnyaneshwar Nagar, Solapur - MPCB","05-10-2025 09:00:00",17.6336264,75.9132495,NO2,2,33,7
India,Maharashtra,Solapur,"Dnyaneshwar Nagar, Solapur - MPCB","05-10-2025 09:00:00",17.6336264,75.9132495,SO2,2,3,2
India,Maharashtra,"Navi Mumbai","Nerul, Navi Mumbai - MPCB","05-10-2025 09:00:00",19.008751,73.016620,PM2.5,17,71,36
India,Maharashtra,Thane,"Upvan Fort, Thane - MPCB","05-10-2025 09:00:00",19.222279,72.957979,PM10,31,74,45
India,Odisha,Bhubaneswar,"Patia, Bhubaneswar - OSPCB","05-10-2025 09:00:00",20.34652,85.81630,OZONE,12,33,18
India,Odisha,Bileipada,"Tata Township, Bileipada - OSPCB","05-10-2025 09:00:00",22.06156703,85.47409613,PM10,29,91,50
India,Odisha,Bileipada,"Tata Township, Bileipada - OSPCB","05-10-2025 09:00:00",22.06156703,85.47409613,NH3,4,4,4
India,Odisha,Bileipada,"Tata Township, Bileipada - OSPCB","05-10-2025 09:00:00",22.06156703,85.47409613,SO2,10,14,11
India,Odisha,Baripada,"Meher Colony, Baripada - OSPCB","05-10-2025 09:00:00",21.941841,86.728318,OZONE,6,24,11
India,Odisha,Bhubaneswar,"Lingraj Mandir, Bhubaneswar - OSPCB","05-10-2025 09:00:00",20.240790,85.836784,NH3,2,4,3
India,Odisha,Bhubaneswar,"Lingraj Mandir, Bhubaneswar - OSPCB","05-10-2025 09:00:00",20.240790,85.836784,SO2,5,7,6
India,Odisha,Byasanagar,"Ferro Chrome Colony, Byasanagar - OSPCB","05-10-2025 09:00:00",20.94185,86.11510,PM2.5,30,85,51
India,Odisha,Byasanagar,"Ferro Chrome Colony, Byasanagar - OSPCB","05-10-2025 09:00:00",20.94185,86.11510,PM10,27,103,58
India,Meghalaya,Shillong,"Lumpyngngad, Shillong - Meghalaya PCB","05-10-2025 09:00:00",25.5586,91.8985,NO2,NA,NA,NA
India,Meghalaya,Shillong,"Lumpyngngad, Shillong - Meghalaya PCB","05-10-2025 09:00:00",25.5586,91.8985,OZONE,1,7,1
India,Odisha,Angul,"Hakimapada, Angul - OSPCB","05-10-2025 09:00:00",20.832874,85.104082,PM10,18,73,37
India,Odisha,Angul,"Hakimapada, Angul - OSPCB","05-10-2025 09:00:00",20.832874,85.104082,NO2,4,8,6
India,Odisha,Brajrajnagar,"GM Office, Brajrajnagar - OSPCB","05-10-2025 09:00:00",21.8004996,83.8396977,CO,12,18,16
India,Odisha,Baripada,"Meher Colony, Baripada - OSPCB","05-10-2025 09:00:00",21.941841,86.728318,PM10,39,62,49
India,Odisha,Angul,"Hakimapada, Angul - OSPCB","05-10-2025 09:00:00",20.832874,85.104082,OZONE,2,7,3
India,Maharashtra,Virar,"Bolinj, Virar - MPCB","05-10-2025 09:00:00",19.4458210,72.7988231,NH3,1,3,2
India,Punjab,Amritsar,"Golden Temple, Amritsar - PPCB","05-10-2025 09:00:00",31.620000,74.876512,OZONE,28,43,36
India,Punjab,Bathinda,"Hardev Nagar, Bathinda - PPCB","05-10-2025 09:00:00",30.233011,74.907758,SO2,1,23,12
India,Punjab,Jalandhar,"Civil Line, Jalandhar - PPCB","05-10-2025 09:00:00",31.321907,75.578914,PM10,72,133,103
India,Punjab,Jalandhar,"Civil Line, Jalandhar - PPCB","05-10-2025 09:00:00",31.321907,75.578914,NO2,27,33,29
India,Punjab,Khanna,"Kalal Majra, Khanna - PPCB","05-10-2025 09:00:00","30.736056 ",76.209694,NO2,26,30,28
India,Punjab,"Mandi Gobindgarh","RIMT University, Mandi Gobindgarh - PPCB","05-10-2025 09:00:00",30.649961,76.331442,PM2.5,85,489,223
India,Punjab,Patiala,"Model Town, Patiala - PPCB","05-10-2025 09:00:00",30.349388,76.366642,CO,8,30,18
India,Rajasthan,Alwar,"Moti Doongri, Alwar - RSPCB","05-10-2025 09:00:00",27.554793,76.611536,SO2,8,71,44
India,Rajasthan,Alwar,"Moti Doongri, Alwar - RSPCB","05-10-2025 09:00:00",27.554793,76.611536,CO,15,70,46
India,Rajasthan,Banswara,"Rati Talai, Banswara - RSPCB","05-10-2025 09:00:00",23.555190,74.440010,PM2.5,12,93,56
India,Punjab,Rupnagar,"Ratanpura, Rupnagar - Ambuja Cements","05-10-2025 09:00:00",31.0325454,76.5623046,SO2,7,11,9
India,Rajasthan,Ajmer,"Civil Lines,  Ajmer - RSPCB","05-10-2025 09:00:00",26.470859,74.646594,CO,8,36,19
India,Odisha,Cuttack,"CDA Area, Cuttack - OSPCB","05-10-2025 09:00:00","20.48891     ","85.84768     ",OZONE,21,43,29
India,Odisha,Keonjhar,"Jagamohanpur, Keonjhar - OSPCB","05-10-2025 09:00:00",21.643900,85.599355,NO2,9,17,14
India,Rajasthan,Bhiwadi,"RIICO Ind. Area III, Bhiwadi - RSPCB","05-10-2025 09:00:00",28.194909,76.862296,SO2,3,8,6
India,Rajasthan,Bhiwadi,"RIICO Ind. Area III, Bhiwadi - RSPCB","05-10-2025 09:00:00",28.194909,76.862296,CO,12,84,52
India,Rajasthan,Bharatpur,"Krishna Nagar, Bharatpur - RSPCB","05-10-2025 09:00:00",27.215415,77.50873,PM2.5,13,130,62
India,Rajasthan,Bharatpur,"Krishna Nagar, Bharatpur - RSPCB","05-10-2025 09:00:00",27.215415,77.50873,SO2,1,2,1
India,Rajasthan,Baran,"Bamboliya, Baran - RSPCB","05-10-2025 09:00:00",25.106006,76.469948,NH3,4,7,5
India,Rajasthan,Churu,"Subash Chowk, Churu - RSPCB","05-10-2025 09:00:00",28.296139,74.961696,SO2,2,7,4
India,Rajasthan,Dausa,"Khatikan Mohalla, Dausa - RSPCB","05-10-2025 09:00:00",26.895552,76.334753,CO,12,114,19
India,Rajasthan,Dholpur,"Raja Ganj, Dholpur - RSPCB","05-10-2025 09:00:00",26.699557,77.898881,NO2,8,19,11
India,Rajasthan,Dholpur,"Raja Ganj, Dholpur - RSPCB","05-10-2025 09:00:00",26.699557,77.898881,NH3,2,7,4
India,Rajasthan,Dungarpur,"Bhoiwada, Dungarpur - RSPCB","05-10-2025 09:00:00",23.837789,73.714926,PM2.5,18,55,36
India,Rajasthan,Dungarpur,"Bhoiwada, Dungarpur - RSPCB","05-10-2025 09:00:00",23.837789,73.714926,PM10,39,70,55
India,Rajasthan,Dungarpur,"Bhoiwada, Dungarpur - RSPCB","05-10-2025 09:00:00",23.837789,73.714926,SO2,3,5,4
India,Rajasthan,Jaipur,"Mansarovar Sector-12, Jaipur - RSPCB","05-10-2025 09:00:00",26.843698,75.766894,OZONE,11,205,46
India,Rajasthan,Jaipur,"Police Commissionerate, Jaipur - RSPCB","05-10-2025 09:00:00",26.9164092,75.7994901,PM10,41,150,91
India,Rajasthan,Jaipur,"Police Commissionerate, Jaipur - RSPCB","05-10-2025 09:00:00",26.9164092,75.7994901,NO2,61,101,92
India,Rajasthan,Jaipur,"Police Commissionerate, Jaipur - RSPCB","05-10-2025 09:00:00",26.9164092,75.7994901,NH3,1,28,11
India,Rajasthan,Jaipur,"Police Commissionerate, Jaipur - RSPCB","05-10-2025 09:00:00",26.9164092,75.7994901,CO,12,122,66
India,Rajasthan,Bikaner,"MM Ground, Bikaner - RSPCB","05-10-2025 09:00:00",28.018792,73.292658,OZONE,30,95,43
India,Rajasthan,Bundi,"New Colony, Bundi - RSPCB","05-10-2025 09:00:00",25.435774,75.644272,PM10,9,96,39
India,Rajasthan,Bundi,"New Colony, Bundi - RSPCB","05-10-2025 09:00:00",25.435774,75.644272,SO2,6,9,7
India,Rajasthan,Chittorgarh,"Shastri Nagar, Chittorgarh - RSPCB","05-10-2025 09:00:00",24.892047,74.623527,PM2.5,12,25,19
India,Rajasthan,Jalore,"Mudtra Sili, Jalore - RSPCB","05-10-2025 09:00:00",25.344694,72.626208,PM2.5,12,55,34
India,Rajasthan,Jalore,"Mudtra Sili, Jalore - RSPCB","05-10-2025 09:00:00",25.344694,72.626208,NH3,3,8,4
India,Rajasthan,Jalore,"Mudtra Sili, Jalore - RSPCB","05-10-2025 09:00:00",25.344694,72.626208,OZONE,25,60,45
India,Rajasthan,Jhalawar,"Rajlaxmi Nagar, Jhalawar - RSPCB","05-10-2025 09:00:00",24.588397,76.172782,NO2,23,72,49
India,Rajasthan,Jaipur,"Sector-2 Murlipura, Jaipur - RSPCB","05-10-2025 09:00:00",26.960669,75.771817,PM2.5,34,259,100
India,Rajasthan,Jaipur,"Sector-2 Murlipura, Jaipur - RSPCB","05-10-2025 09:00:00",26.960669,75.771817,NH3,2,15,5
India,Rajasthan,Jaisalmer,"Sadar Bazar, Jaisalmer - RSPCB","05-10-2025 09:00:00",26.912329,70.909168,PM10,28,116,54
India,Rajasthan,Jaipur,"Adarsh Nagar, Jaipur - RSPCB","05-10-2025 09:00:00",26.902909,75.836858,OZONE,19,95,39
India,Rajasthan,Jhalawar,"Rajlaxmi Nagar, Jhalawar - RSPCB","05-10-2025 09:00:00",24.588397,76.172782,NH3,3,4,3
India,Rajasthan,Bikaner,"MM Ground, Bikaner - RSPCB","05-10-2025 09:00:00",28.018792,73.292658,PM10,34,165,78
India,Rajasthan,Jodhpur,"Mandor, Jodhpur - RSPCB","05-10-2025 09:00:00",26.358805,73.047444,NH3,NA,NA,NA
India,Rajasthan,Jodhpur,"Mandor, Jodhpur - RSPCB","05-10-2025 09:00:00",26.358805,73.047444,SO2,NA,NA,NA
India,Rajasthan,Jodhpur,"Mandor, Jodhpur - RSPCB","05-10-2025 09:00:00",26.358805,73.047444,CO,9,56,9
India,Rajasthan,Jodhpur,"Samrat Ashok Udhyan, Jodhpur - RSPCB","05-10-2025 09:00:00",26.253384,72.976571,PM10,19,105,39
India,Rajasthan,Karauli,"Satyawati Vihar, Karauli - RSPCB","05-10-2025 09:00:00",26.506177,77.025989,PM2.5,2,156,55
India,Rajasthan,Karauli,"Satyawati Vihar, Karauli - RSPCB","05-10-2025 09:00:00",26.506177,77.025989,NO2,18,39,29
India,Rajasthan,Kota,"Dhanmandi, Kota - RSPCB","05-10-2025 09:00:00",25.164090,75.858137,PM10,28,98,46
India,Rajasthan,Jhunjhunu,"Indra Nagar, Jhunjhunu - RSPCB","05-10-2025 09:00:00",28.108988,75.386577,NH3,1,8,5
India,Rajasthan,Jhunjhunu,"Indra Nagar, Jhunjhunu - RSPCB","05-10-2025 09:00:00",28.108988,75.386577,SO2,2,4,3
India,Rajasthan,Jhunjhunu,"Indra Nagar, Jhunjhunu - RSPCB","05-10-2025 09:00:00",28.108988,75.386577,CO,12,75,18
India,Rajasthan,Jodhpur,"Collectorate, Jodhpur - RSPCB","05-10-2025 09:00:00",26.268249,73.0193853,PM2.5,26,84,46
India,Rajasthan,Jodhpur,"Collectorate, Jodhpur - RSPCB","05-10-2025 09:00:00",26.268249,73.0193853,NH3,8,15,12
India,Rajasthan,Jodhpur,"Digari Kalan, Jodhpur - RSPCB","05-10-2025 09:00:00",26.295810,73.082283,SO2,1,5,3
India,Rajasthan,Jodhpur,"Digari Kalan, Jodhpur - RSPCB","05-10-2025 09:00:00",26.295810,73.082283,OZONE,14,114,21
India,Rajasthan,Jodhpur,"Jhalamand, Jodhpur - RSPCB","05-10-2025 09:00:00",26.215415,73.070156,PM2.5,13,75,29
India,Rajasthan,Jodhpur,"Jhalamand, Jodhpur - RSPCB","05-10-2025 09:00:00",26.215415,73.070156,PM10,24,123,54
India,Rajasthan,Kota,"Nayapura, Kota - RSPCB","05-10-2025 09:00:00",25.196024,75.855668,NO2,10,32,16
India,Rajasthan,Kota,"Nayapura, Kota - RSPCB","05-10-2025 09:00:00",25.196024,75.855668,NH3,4,6,4
India,Rajasthan,Kota,"Shrinath Puram, Kota - RSPCB","05-10-2025 09:00:00",25.14389,75.821256,SO2,2,7,5
India,Rajasthan,Jodhpur,"Jhalamand, Jodhpur - RSPCB","05-10-2025 09:00:00",26.215415,73.070156,OZONE,10,120,13
India,Rajasthan,Jodhpur,"Mandor, Jodhpur - RSPCB","05-10-2025 09:00:00",26.358805,73.047444,PM10,NA,NA,NA
India,Rajasthan,Pratapgarh,"Pragati Nagar, Pratapgarh - RSPCB","05-10-2025 09:00:00",24.041198,74.780702,OZONE,NA,NA,NA
India,Rajasthan,Jhalawar,"Rajlaxmi Nagar, Jhalawar - RSPCB","05-10-2025 09:00:00",24.588397,76.172782,CO,22,60,23
India,Rajasthan,Nagaur,"Karni Colony, Nagaur - RSPCB","05-10-2025 09:00:00",27.213494,73.734444,NH3,4,10,6
India,Rajasthan,Kota,"Nayapura, Kota - RSPCB","05-10-2025 09:00:00",25.196024,75.855668,PM10,25,92,53
India,Rajasthan,Sikar,"Radhakishan Pura, Sikar - RSPCB","05-10-2025 09:00:00",27.608912,75.153302,CO,12,70,21
India,Rajasthan,Sirohi,"Vedhaynath Colony, Sirohi - RSPCB","05-10-2025 09:00:00",24.885261,72.857549,NH3,3,7,4
India,Rajasthan,Sirohi,"Vedhaynath Colony, Sirohi - RSPCB","05-10-2025 09:00:00",24.885261,72.857549,SO2,5,8,6
India,Rajasthan,"Sri Ganganagar","Old City, Sri Ganganagar - RSPCB","05-10-2025 09:00:00",29.931624,73.864511,NH3,4,7,5
India,Rajasthan,"Sri Ganganagar","Old City, Sri Ganganagar - RSPCB","05-10-2025 09:00:00",29.931624,73.864511,CO,46,135,55
India,Rajasthan,Tonk,"Shastri Nagar, Tonk - RSPCB","05-10-2025 09:00:00",26.159933,75.780517,NH3,4,8,5
India,Sikkim,Gangtok,"Zero Point GICI, Gangtok - SSPCB","05-10-2025 09:00:00",27.338530,88.614099,OZONE,15,27,24
India,TamilNadu,Chengalpattu,"Crescent University, Chengalpattu - TNPCB","05-10-2025 09:00:00",12.8777316,80.0834807,PM10,42,92,58
India,TamilNadu,Chennai,"Alandur Bus Depot, Chennai - CPCB","05-10-2025 09:00:00",12.9099161,80.1076538,PM10,3,111,49
India,TamilNadu,Chennai,"Alandur Bus Depot, Chennai - CPCB","05-10-2025 09:00:00",12.9099161,80.1076538,SO2,15,16,15
India,TamilNadu,Chennai,"Alandur Bus Depot, Chennai - CPCB","05-10-2025 09:00:00",12.9099161,80.1076538,OZONE,6,43,13
India,TamilNadu,Chennai,"Manali, Chennai - CPCB","05-10-2025 09:00:00",13.164544,80.26285,CO,18,48,29
India,TamilNadu,Chennai,"Perungudi, Chennai - TNPCB","05-10-2025 09:00:00",12.9533,80.2357,NH3,4,6,5
India,TamilNadu,Chennai,"Perungudi, Chennai - TNPCB","05-10-2025 09:00:00",12.9533,80.2357,SO2,1,3,2
India,TamilNadu,Chennai,"Velachery Res. Area, Chennai - CPCB","05-10-2025 09:00:00",13.0052189,80.2398125,PM10,27,65,47
India,TamilNadu,Chennai,"Velachery Res. Area, Chennai - CPCB","05-10-2025 09:00:00",13.0052189,80.2398125,CO,52,65,62
India,TamilNadu,Coimbatore,"PSG College of Arts and Science, Coimbatore - TNPCB","05-10-2025 09:00:00",11.0328,77.0349,PM10,18,76,44
India,TamilNadu,Coimbatore,"PSG College of Arts and Science, Coimbatore - TNPCB","05-10-2025 09:00:00",11.0328,77.0349,NO2,10,10,10
India,TamilNadu,Coimbatore,"SIDCO Kurichi, Coimbatore - TNPCB","05-10-2025 09:00:00",10.942451,76.978996,PM10,44,90,61
India,TamilNadu,Coimbatore,"SIDCO Kurichi, Coimbatore - TNPCB","05-10-2025 09:00:00",10.942451,76.978996,CO,31,46,38
India,Rajasthan,Rajsamand,"Dhoinda, Rajsamand - RSPCB","05-10-2025 09:00:00",25.036360,73.883502,CO,22,58,24
India,Rajasthan,"Sawai Madhopur","Sahu Nagar, Sawai Madhopur - RSPCB","05-10-2025 09:00:00",26.031443,76.359327,PM2.5,13,84,37
India,Rajasthan,"Sawai Madhopur","Sahu Nagar, Sawai Madhopur - RSPCB","05-10-2025 09:00:00",26.031443,76.359327,NO2,8,22,13
India,Rajasthan,Tonk,"Shastri Nagar, Tonk - RSPCB","05-10-2025 09:00:00",26.159933,75.780517,OZONE,15,54,22
India,Sikkim,Gangtok,"Zero Point GICI, Gangtok - SSPCB","05-10-2025 09:00:00",27.338530,88.614099,NO2,NA,NA,NA
India,TamilNadu,Chennai,"Kodungaiyur, Chennai - TNPCB","05-10-2025 09:00:00",13.1278,80.2642,PM10,12,116,57
India,TamilNadu,Chennai,"Manali Village, Chennai - TNPCB","05-10-2025 09:00:00",13.1662,80.2584,NO2,3,5,4
India,TamilNadu,Gummidipoondi,"Anthoni Pillai Nagar, Gummidipoondi - TNPCB","05-10-2025 09:00:00",13.4127,80.1081,PM10,39,155,76
India,TamilNadu,Gummidipoondi,"Anthoni Pillai Nagar, Gummidipoondi - TNPCB","05-10-2025 09:00:00",13.4127,80.1081,NH3,1,7,2
India,TamilNadu,Chennai,"Arumbakkam, Chennai - TNPCB","05-10-2025 09:00:00",13.0664,"80.2112 ",PM2.5,13,70,39
India,TamilNadu,Chennai,"Arumbakkam, Chennai - TNPCB","05-10-2025 09:00:00",13.0664,"80.2112 ",NH3,3,4,3
India,TamilNadu,Salem,"Sona College of Technology, Salem - TNPCB","05-10-2025 09:00:00",11.679111,78.125052,SO2,31,32,31
India,TamilNadu,Thoothukudi,"Meelavittan, Thoothukudi - TNPCB","05-10-2025 09:00:00","8.816428 ",78.099039,SO2,2,9,5
India,TamilNadu,Tiruchirappalli,"St Joseph College, Tiruchirappalli - TNPCB","05-10-2025 09:00:00",10.830158,78.691849,PM2.5,34,51,44
India,TamilNadu,Tiruchirappalli,"St Joseph College, Tiruchirappalli - TNPCB","05-10-2025 09:00:00",10.830158,78.691849,PM10,39,110,65
India,TamilNadu,Tiruchirappalli,"St Joseph College, Tiruchirappalli - TNPCB","05-10-2025 09:00:00",10.830158,78.691849,SO2,5,17,13
India,TamilNadu,Tiruchirappalli,"St Joseph College, Tiruchirappalli - TNPCB","05-10-2025 09:00:00",10.830158,78.691849,CO,6,16,15
India,TamilNadu,Tirunelveli,"Municipal Corporation Office, Tirunelveli - TNPCB","05-10-2025 09:00:00",8.728442,77.6962,PM10,16,44,28
India,TamilNadu,Tirunelveli,"Municipal Corporation Office, Tirunelveli - TNPCB","05-10-2025 09:00:00",8.728442,77.6962,NO2,4,12,7
India,TamilNadu,Tirunelveli,"Municipal Corporation Office, Tirunelveli - TNPCB","05-10-2025 09:00:00",8.728442,77.6962,OZONE,6,7,6
India,TamilNadu,Tirupur,"Kumaran College, Tirupur - TNPCB","05-10-2025 09:00:00",11.0973603,77.3228673,PM10,NA,NA,NA
India,TamilNadu,Tirupur,"Kumaran College, Tirupur - TNPCB","05-10-2025 09:00:00",11.0973603,77.3228673,SO2,NA,NA,NA
India,TamilNadu,Virudhunagar,"Collectorate Office, Virudhunagar - TNPCB","05-10-2025 09:00:00",9.559382,77.948828,NO2,NA,NA,NA
India,TamilNadu,Virudhunagar,"Collectorate Office, Virudhunagar - TNPCB","05-10-2025 09:00:00",9.559382,77.948828,SO2,NA,NA,NA
India,Telangana,Hyderabad,"Bollaram Industrial Area, Hyderabad - TSPCB","05-10-2025 09:00:00",17.540891,78.358528,PM10,15,77,39
India,Telangana,Hyderabad,"Bollaram Industrial Area, Hyderabad - TSPCB","05-10-2025 09:00:00",17.540891,78.358528,NO2,24,56,39
India,Telangana,Hyderabad,"Bollaram Industrial Area, Hyderabad - TSPCB","05-10-2025 09:00:00",17.540891,78.358528,CO,21,48,39
India,Telangana,Hyderabad,"Central University, Hyderabad - TSPCB","05-10-2025 09:00:00",17.460103,78.334361,PM10,NA,NA,NA
India,Telangana,Hyderabad,"ECIL Kapra, Hyderabad - TSPCB","05-10-2025 09:00:00",17.470431,78.566959,NH3,2,5,4
India,TamilNadu,Ramanathapuram,"Chalai Bazaar, Ramanathapuram - TNPCB","05-10-2025 09:00:00",9.36399,78.831977,NH3,2,2,2
India,TamilNadu,Ranipet,"VOC Nagar_SIPCOT, Ranipet - TNPCB","05-10-2025 09:00:00",12.952707,79.30394,OZONE,1,2,1
India,TamilNadu,Salem,"Sona College of Technology, Salem - TNPCB","05-10-2025 09:00:00",11.679111,78.125052,PM2.5,10,63,29
India,TamilNadu,Nagapattinam,"Velippalayam, Nagapattinam - TNPCB","05-10-2025 09:00:00",10.798548,79.838212,SO2,3,8,6
India,TamilNadu,Namakkal,"Ponnusamy Nagar, Namakkal - TNPCB","05-10-2025 09:00:00",11.273992,78.163545,PM10,NA,NA,NA
India,TamilNadu,Namakkal,"Ponnusamy Nagar, Namakkal - TNPCB","05-10-2025 09:00:00",11.273992,78.163545,CO,6,14,12
India,TamilNadu,Kanchipuram,"Kilambi, Kanchipuram - TNPCB","05-10-2025 09:00:00",12.864618,79.659968,NH3,4,4,4
India,TamilNadu,Kanchipuram,"Kilambi, Kanchipuram - TNPCB","05-10-2025 09:00:00",12.864618,79.659968,SO2,1,7,3
India,TamilNadu,Palkalaiperur,"Bharathidasan University, Palkalaiperur - TNPCB","05-10-2025 09:00:00",10.681158,78.741746,NH3,1,1,1
India,Telangana,Hyderabad,"ICRISAT Patancheru, Hyderabad - TSPCB","05-10-2025 09:00:00",17.518400,78.278777,NO2,3,9,5
India,TamilNadu,Hosur,"SIPCOT Phase-1, Hosur - TNPCB","05-10-2025 09:00:00",12.746998,77.813811,SO2,46,49,48
India,TamilNadu,Madurai,"Uchapatti, Madurai - TNPCB","05-10-2025 09:00:00",9.865935,78.022669,PM10,NA,NA,NA
India,Uttar_Pradesh,Baghpat,"Sardar Patel Inter College, Baghpat - UPPCB","05-10-2025 09:00:00",28.964949,77.278761,NH3,4,8,7
India,Uttar_Pradesh,Baghpat,"Sardar Patel Inter College, Baghpat - UPPCB","05-10-2025 09:00:00",28.964949,77.278761,SO2,27,65,39
India,Uttar_Pradesh,Baghpat,"Sardar Patel Inter College, Baghpat - UPPCB","05-10-2025 09:00:00",28.964949,77.278761,OZONE,21,83,26
India,Uttar_Pradesh,Bareilly,"Rajendra Nagar, Bareilly - UPPCB","05-10-2025 09:00:00",28.38910936,79.42963708,NO2,9,10,9
India,Uttar_Pradesh,Bulandshahr,"Yamunapuram, Bulandshahr - UPPCB","05-10-2025 09:00:00",28.406963,77.849831,PM10,26,200,95
India,Telangana,Hyderabad,"Kokapet, Hyderabad - TSPCB","05-10-2025 09:00:00",17.393559,78.339194,NO2,11,15,13
India,Telangana,Hyderabad,"Kokapet, Hyderabad - TSPCB","05-10-2025 09:00:00",17.393559,78.339194,NH3,2,3,2
India,Telangana,Hyderabad,"Kompally Municipal Office, Hyderabad - TSPCB","05-10-2025 09:00:00",17.544899,78.486949,PM2.5,47,56,54
India,Telangana,Hyderabad,"New Malakpet, Hyderabad - TSPCB","05-10-2025 09:00:00",17.37206,78.50864,NH3,2,3,2
India,Uttar_Pradesh,Agra,"Sanjay Palace, Agra - UPPCB","05-10-2025 09:00:00",27.19865833,78.00598056,PM2.5,4,37,19
India,Uttar_Pradesh,Agra,"Sanjay Palace, Agra - UPPCB","05-10-2025 09:00:00",27.19865833,78.00598056,SO2,15,18,16
India,Uttar_Pradesh,Agra,"Sector-3B Avas Vikas Colony, Agra - UPPCB","05-10-2025 09:00:00",27.19412,77.96237,NO2,10,27,24
India,Uttar_Pradesh,Agra,"Sector-3B Avas Vikas Colony, Agra - UPPCB","05-10-2025 09:00:00",27.19412,77.96237,NH3,3,4,4
India,Telangana,Hyderabad,"Ramachandrapuram, Hyderabad - TSPCB","05-10-2025 09:00:00",17.528544,78.286195,OZONE,29,67,47
India,Telangana,Hyderabad,"Zoo Park, Hyderabad - TSPCB","05-10-2025 09:00:00",17.349694,78.451437,PM2.5,43,141,81
India,Telangana,Hyderabad,"Zoo Park, Hyderabad - TSPCB","05-10-2025 09:00:00",17.349694,78.451437,PM10,57,102,78
India,Telangana,Hyderabad,"Zoo Park, Hyderabad - TSPCB","05-10-2025 09:00:00",17.349694,78.451437,SO2,4,5,4
India,Uttar_Pradesh,Firozabad,"Nagla Bhau, Firozabad - UPPCB","05-10-2025 09:00:00",27.168897,78.376960,OZONE,12,16,14
India,Uttar_Pradesh,Firozabad,"Vibhab Nagar, Firozabad - UPPCB","05-10-2025 09:00:00",27.1594,78.3953,CO,9,15,13
India,Uttar_Pradesh,Ghaziabad,"Loni, Ghaziabad - UPPCB","05-10-2025 09:00:00",28.757294,77.278792,NO2,NA,NA,NA
India,Uttar_Pradesh,Agra,"Manoharpur, Agra - UPPCB","05-10-2025 09:00:00",27.23711,78.01936,PM2.5,22,124,67
India,Uttar_Pradesh,Agra,"Manoharpur, Agra - UPPCB","05-10-2025 09:00:00",27.23711,78.01936,NO2,17,17,17
India,Uttar_Pradesh,Agra,"Shahjahan Garden, Agra - UPPCB","05-10-2025 09:00:00",27.169338,78.03582,NO2,27,33,28
India,Uttar_Pradesh,Agra,"Shastripuram, Agra - UPPCB","05-10-2025 09:00:00",27.19862,77.92066,CO,13,24,18
India,Uttar_Pradesh,Agra,"Rohta, Agra - UPPCB","05-10-2025 09:00:00",27.106972,78.000111,PM2.5,44,228,93
India,Uttar_Pradesh,"Greater Noida","Knowledge Park - III, Greater Noida - UPPCB","05-10-2025 09:00:00",28.47272,77.482000,PM10,100,242,162
India,Uttar_Pradesh,"Greater Noida","Knowledge Park - III, Greater Noida - UPPCB","05-10-2025 09:00:00",28.47272,77.482000,CO,28,90,60
India,Uttar_Pradesh,"Greater Noida","Knowledge Park - V, Greater Noida - UPPCB","05-10-2025 09:00:00",28.557054,77.453663,PM10,136,328,192
India,Uttar_Pradesh,"Greater Noida","Knowledge Park - V, Greater Noida - UPPCB","05-10-2025 09:00:00",28.557054,77.453663,NO2,28,83,53
India,Uttar_Pradesh,Hapur,"Anand Vihar, Hapur - UPPCB","05-10-2025 09:00:00",28.725645,77.749675,PM2.5,42,321,151
India,Uttar_Pradesh,Hapur,"Anand Vihar, Hapur - UPPCB","05-10-2025 09:00:00",28.725645,77.749675,PM10,60,198,119
India,Uttar_Pradesh,Jhansi,"Shivaji Nagar, Jhansi - UPPCB","05-10-2025 09:00:00",25.4547,78.6039,PM2.5,21,417,63
India,Uttar_Pradesh,Kanpur,"NSI Kalyanpur, Kanpur - UPPCB","05-10-2025 09:00:00",26.509954,80.249612,PM10,8,66,28
India,Uttar_Pradesh,Kanpur,"Nehru Nagar, Kanpur - UPPCB","05-10-2025 09:00:00",26.4703136,80.3229863,OZONE,6,50,7
India,Uttar_Pradesh,Khurja,"Kalindi Kunj, Khurja - UPPCB","05-10-2025 09:00:00",28.2348927,77.8683002,NH3,1,1,1
India,Uttar_Pradesh,Lucknow,"B R Ambedkar University, Lucknow - UPPCB","05-10-2025 09:00:00",26.766433,80.927299,PM2.5,13,56,30
India,Uttar_Pradesh,Lucknow,"B R Ambedkar University, Lucknow - UPPCB","05-10-2025 09:00:00",26.766433,80.927299,SO2,38,41,40
India,Uttar_Pradesh,Lucknow,"B R Ambedkar University, Lucknow - UPPCB","05-10-2025 09:00:00",26.766433,80.927299,CO,54,62,59
India,Uttar_Pradesh,Jhansi,"Shivaji Nagar, Jhansi - UPPCB","05-10-2025 09:00:00",25.4547,78.6039,NO2,6,6,6
India,Uttar_Pradesh,Kanpur,"FTI Kidwai Nagar, Kanpur - UPPCB","05-10-2025 09:00:00",26.428282,80.327067,PM2.5,6,22,13
India,Uttar_Pradesh,Lucknow,"Gomti Nagar, Lucknow - UPPCB","05-10-2025 09:00:00",26.868120,81.005119,CO,36,40,37
India,Uttar_Pradesh,Lucknow,"Lalbagh, Lucknow - CPCB","05-10-2025 09:00:00",26.8458805,80.9365541,PM2.5,9,89,44
India,Uttar_Pradesh,Meerut,"Pallavpuram Phase 2, Meerut - UPPCB","05-10-2025 09:00:00",29.063510,77.709723,PM2.5,71,249,127
India,Uttar_Pradesh,Meerut,"Pallavpuram Phase 2, Meerut - UPPCB","05-10-2025 09:00:00",29.063510,77.709723,NO2,12,26,17
India,Uttar_Pradesh,Meerut,"Ganga Nagar, Meerut - UPPCB","05-10-2025 09:00:00",28.999264,77.7590354,PM10,98,165,125
India,Uttar_Pradesh,Meerut,"Ganga Nagar, Meerut - UPPCB","05-10-2025 09:00:00",28.999264,77.7590354,NO2,31,59,39
India,Uttar_Pradesh,Meerut,"Pallavpuram Phase 2, Meerut - UPPCB","05-10-2025 09:00:00",29.063510,77.709723,SO2,10,22,14
India,Uttar_Pradesh,Ghaziabad,"Sanjay Nagar, Ghaziabad - UPPCB","05-10-2025 09:00:00",28.685382,77.453839,SO2,8,21,12
India,Uttar_Pradesh,Lucknow,"Lalbagh, Lucknow - CPCB","05-10-2025 09:00:00",26.8458805,80.9365541,OZONE,3,36,9
India,Uttar_Pradesh,Moradabad,"Jigar Colony, Moradabad - UPPCB","05-10-2025 09:00:00",28.856664,78.772638,NH3,6,6,6
India,Uttar_Pradesh,Moradabad,"Jigar Colony, Moradabad - UPPCB","05-10-2025 09:00:00",28.856664,78.772638,SO2,NA,NA,NA
India,Uttar_Pradesh,Moradabad,"Kashiram Nagar, Moradabad - UPPCB","05-10-2025 09:00:00",28.849399,78.742362,CO,19,34,24
India,Uttar_Pradesh,Moradabad,"Transport Nagar, Moradabad - UPPCB","05-10-2025 09:00:00",28.802625,78.753728,OZONE,29,56,33
India,Uttar_Pradesh,Muzaffarnagar,"New Mandi, Muzaffarnagar - UPPCB","05-10-2025 09:00:00",29.4723508,77.7194031,NO2,19,44,26
India,Uttar_Pradesh,Muzaffarnagar,"New Mandi, Muzaffarnagar - UPPCB","05-10-2025 09:00:00",29.4723508,77.7194031,SO2,6,43,16
India,Uttar_Pradesh,Muzaffarnagar,"New Mandi, Muzaffarnagar - UPPCB","05-10-2025 09:00:00",29.4723508,77.7194031,OZONE,27,152,40
India,Uttar_Pradesh,Noida,"Sector - 125, Noida - UPPCB","05-10-2025 09:00:00",28.5447608,77.3231257,PM2.5,57,222,142
India,Uttar_Pradesh,Noida,"Sector - 125, Noida - UPPCB","05-10-2025 09:00:00",28.5447608,77.3231257,PM10,93,387,185
India,Uttar_Pradesh,Noida,"Sector - 125, Noida - UPPCB","05-10-2025 09:00:00",28.5447608,77.3231257,CO,26,98,60
India,Uttarakhand,Kashipur,"Govt. Girls Inter College, Kashipur - UKPCB","05-10-2025 09:00:00",29.2124114,78.9611753,CO,11,23,19
India,Uttarakhand,Rishikesh,"Shivaji Nagar, Rishikesh - UKPCB","05-10-2025 09:00:00",30.075911,78.2859547,SO2,3,3,3
India,Uttarakhand,Rishikesh,"Shivaji Nagar, Rishikesh - UKPCB","05-10-2025 09:00:00",30.075911,78.2859547,CO,19,40,26
India,West_Bengal,Asansol,"Asansol Court Area, Asansol - WBPCB","05-10-2025 09:00:00",23.685297,86.945968,PM10,21,63,34
India,West_Bengal,Asansol,"Evelyn Lodge, Asansol - WBPCB","05-10-2025 09:00:00",23.6979360,86.9443950,PM2.5,18,38,25
India,West_Bengal,Asansol,"Evelyn Lodge, Asansol - WBPCB","05-10-2025 09:00:00",23.6979360,86.9443950,NO2,3,11,7
India,West_Bengal,Asansol,"Mahabir Colliery, Asansol - WBPCB","05-10-2025 09:00:00",23.6181830,87.1057180,NH3,1,2,1
India,Uttar_Pradesh,Varanasi,"IESD Banaras Hindu University, Varanasi - UPPCB","05-10-2025 09:00:00",25.262326,82.995408,OZONE,14,33,22
India,Uttar_Pradesh,Vrindavan,"Omex Eternity, Vrindavan - UPPCB","05-10-2025 09:00:00",27.5714090,77.6557570,NO2,12,12,12
India,Uttarakhand,Dehradun,"Doon University, Dehradun - UKPCB","05-10-2025 09:00:00",30.269444,78.044167,NO2,1,5,2
India,Uttar_Pradesh,Prayagraj,"Jhunsi, Prayagraj - UPPCB","05-10-2025 09:00:00",25.425602,81.917152,OZONE,20,49,24
India,Uttar_Pradesh,Prayagraj,"Motilal Nehru NIT, Prayagraj - UPPCB","05-10-2025 09:00:00",25.494,81.863,PM10,NA,NA,NA
India,Uttar_Pradesh,Prayagraj,"Motilal Nehru NIT, Prayagraj - UPPCB","05-10-2025 09:00:00",25.494,81.863,OZONE,NA,NA,NA
India,Uttar_Pradesh,Prayagraj,"Nagar Nigam, Prayagraj - UPPCB","05-10-2025 09:00:00","25.44919916 ","81.82735986 ",NO2,5,5,5
India,Uttar_Pradesh,Moradabad,"Buddhi Vihar, Moradabad - UPPCB","05-10-2025 09:00:00",28.83526,78.74460,NH3,5,5,5
India,Uttar_Pradesh,Moradabad,"Buddhi Vihar, Moradabad - UPPCB","05-10-2025 09:00:00",28.83526,78.74460,SO2,27,28,28
India,Uttar_Pradesh,Moradabad,"Buddhi Vihar, Moradabad - UPPCB","05-10-2025 09:00:00",28.83526,78.74460,CO,38,47,41
India,Uttar_Pradesh,Moradabad,"Buddhi Vihar, Moradabad - UPPCB","05-10-2025 09:00:00",28.83526,78.74460,OZONE,20,55,26
India,Uttar_Pradesh,Varanasi,"IESD Banaras Hindu University, Varanasi - UPPCB","05-10-2025 09:00:00",25.262326,82.995408,PM10,3,24,15
India,Uttar_Pradesh,Varanasi,"IESD Banaras Hindu University, Varanasi - UPPCB","05-10-2025 09:00:00",25.262326,82.995408,NO2,2,2,2
India,Uttar_Pradesh,Varanasi,"IESD Banaras Hindu University, Varanasi - UPPCB","05-10-2025 09:00:00",25.262326,82.995408,SO2,30,42,34
India,Uttar_Pradesh,Noida,"Sector - 125, Noida - UPPCB","05-10-2025 09:00:00",28.5447608,77.3231257,OZONE,15,104,20
India,Uttar_Pradesh,Noida,"Sector - 62, Noida - IMD","05-10-2025 09:00:00",28.6245479,77.3577104,NO2,8,21,14
India,Uttar_Pradesh,Meerut,"Pallavpuram Phase 2, Meerut - UPPCB","05-10-2025 09:00:00",29.063510,77.709723,OZONE,36,89,47
India,Uttar_Pradesh,Moradabad,"Eco Herbal Park, Moradabad - UPPCB","05-10-2025 09:00:00",28.840739,78.697531,NH3,2,4,3
India,West_Bengal,Durgapur,"Womens College_City Center, Durgapur - WBPCB (Formerly known as Sidhu Kanhu Indoor Stadium)","05-10-2025 09:00:00",23.549395,87.300496,NH3,2,3,2
India,West_Bengal,Durgapur,"Womens College_City Center, Durgapur - WBPCB (Formerly known as Sidhu Kanhu Indoor Stadium)","05-10-2025 09:00:00",23.549395,87.300496,SO2,24,32,29
India,West_Bengal,Durgapur,"Womens College_City Center, Durgapur - WBPCB (Formerly known as Sidhu Kanhu Indoor Stadium)","05-10-2025 09:00:00",23.549395,87.300496,OZONE,11,28,16
India,West_Bengal,Haldia,"Priyambada Housing Estate, Haldia - WBPCB","05-10-2025 09:00:00",22.06047,88.109737,PM2.5,22,45,32
India,West_Bengal,Haldia,"Priyambada Housing Estate, Haldia - WBPCB","05-10-2025 09:00:00",22.06047,88.109737,NO2,6,14,9
India,West_Bengal,Haldia,"Priyambada Housing Estate, Haldia - WBPCB","05-10-2025 09:00:00",22.06047,88.109737,CO,20,22,21
India,West_Bengal,Kolkata,"Rabindra Bharati University, Kolkata - WBPCB","05-10-2025 09:00:00",22.627847,88.380669,NH3,7,8,8
India,West_Bengal,Kolkata,"Rabindra Sarobar, Kolkata - WBPCB","05-10-2025 09:00:00",22.51106,88.35142,PM2.5,20,38,27
India,West_Bengal,Kolkata,"Rabindra Sarobar, Kolkata - WBPCB","05-10-2025 09:00:00",22.51106,88.35142,PM10,23,39,29
India,West_Bengal,Kolkata,"Rabindra Sarobar, Kolkata - WBPCB","05-10-2025 09:00:00",22.51106,88.35142,NO2,16,28,20
India,West_Bengal,Howrah,"Ghusuri, Howrah - WBPCB","05-10-2025 09:00:00",22.611968,88.347422,NO2,21,26,23
India,West_Bengal,Howrah,"Ghusuri, Howrah - WBPCB","05-10-2025 09:00:00",22.611968,88.347422,SO2,5,9,7
India,West_Bengal,Howrah,"Ghusuri, Howrah - WBPCB","05-10-2025 09:00:00",22.611968,88.347422,OZONE,22,94,31
India,West_Bengal,Howrah,"Padmapukur, Howrah - WBPCB","05-10-2025 09:00:00",22.5687319,88.2797276,NO2,11,23,16
India,West_Bengal,Kolkata,"Bidhannagar, Kolkata - WBPCB","05-10-2025 09:00:00",22.58157048,88.41002457,PM2.5,8,36,23
India,West_Bengal,Kolkata,"Bidhannagar, Kolkata - WBPCB","05-10-2025 09:00:00",22.58157048,88.41002457,NH3,6,10,8
India,West_Bengal,Asansol,"Trivenidevi Bhalotia College, Asansol - WBPCB","05-10-2025 09:00:00",23.616515,87.119133,CO,54,66,59
India,West_Bengal,Durgapur,"PCBL Residential Complex, Durgapur - WBPCB","05-10-2025 09:00:00",23.5087640,87.3544400,CO,49,62,52
India,West_Bengal,Barrackpore,"SVSPA Campus, Barrackpore - WBPCB","05-10-2025 09:00:00",22.7605581,88.3617589,NH3,3,6,5
India,West_Bengal,Howrah,"Botanical Garden, Howrah - WBPCB","05-10-2025 09:00:00",22.554954,88.292568,OZONE,22,36,24
India,West_Bengal,Kolkata,"Jadavpur, Kolkata - WBPCB","05-10-2025 09:00:00",22.49929,88.36917,PM10,44,76,62
India,West_Bengal,Kolkata,"Rabindra Sarobar, Kolkata - WBPCB","05-10-2025 09:00:00",22.51106,88.35142,OZONE,5,6,5
India,West_Bengal,Kolkata,"Victoria, Kolkata - WBPCB","05-10-2025 09:00:00",22.5448082,88.3403691,PM2.5,34,99,61
India,West_Bengal,Kolkata,"Victoria, Kolkata - WBPCB","05-10-2025 09:00:00",22.5448082,88.3403691,PM10,43,61,54
India,West_Bengal,Siliguri,"Ward-32 Bapupara, Siliguri - WBPCB","05-10-2025 09:00:00",26.6879226,88.4152495,PM10,22,42,35
India,Bihar,Arrah,"New DM Office, Arrah - BSPCB","05-10-2025 09:00:00",25.5626095,84.663264,CO,46,78,51
India,Bihar,Aurangabad,"Gurdeo Nagar, Aurangabad - BSPCB","05-10-2025 09:00:00",24.75746,84.366208,NO2,7,8,8
India,Bihar,Aurangabad,"Gurdeo Nagar, Aurangabad - BSPCB","05-10-2025 09:00:00",24.75746,84.366208,SO2,5,14,11
India,Bihar,Aurangabad,"Gurdeo Nagar, Aurangabad - BSPCB","05-10-2025 09:00:00",24.75746,84.366208,CO,NA,NA,NA
India,Bihar,Begusarai,"Lohiyanagar, Begusarai - BSPCB","05-10-2025 09:00:00",25.42742023,86.13886079,NO2,11,22,15
India,Bihar,Bhagalpur,"DM Office_Kachari Chowk, Bhagalpur - BSPCB","05-10-2025 09:00:00",25.251013,86.989001,PM2.5,20,92,45
India,Bihar,Bhagalpur,"DM Office_Kachari Chowk, Bhagalpur - BSPCB","05-10-2025 09:00:00",25.251013,86.989001,NO2,13,18,16
India,Assam,Byrnihat,"Central Academy for SFS, Byrnihat - PCBA","05-10-2025 09:00:00",26.071318,91.87488,OZONE,NA,NA,NA
India,Assam,Guwahati,"IITG, Guwahati - PCBA","05-10-2025 09:00:00",26.2028636,91.70046436,OZONE,1,26,3
India,Assam,Guwahati,"LGBI Airport, Guwahati - PCBA","05-10-2025 09:00:00",26.10887,91.589544,PM2.5,25,307,43
India,Assam,Guwahati,"LGBI Airport, Guwahati - PCBA","05-10-2025 09:00:00",26.10887,91.589544,PM10,29,157,38
India,Assam,Guwahati,"Pan Bazaar, Guwahati - PCBA","05-10-2025 09:00:00",26.187500,91.744194,SO2,38,82,57
India,Bihar,Bhagalpur,"Mayaganj, Bhagalpur - BSPCB","05-10-2025 09:00:00",25.265194,87.012947,PM10,NA,NA,NA
India,Bihar,Bhagalpur,"Mayaganj, Bhagalpur - BSPCB","05-10-2025 09:00:00",25.265194,87.012947,NO2,NA,NA,NA
India,Bihar,"Bihar Sharif","D M Colony, Bihar Sharif - BSPCB","05-10-2025 09:00:00",25.204762,85.514960,NH3,2,2,2
India,Bihar,"Bihar Sharif","D M Colony, Bihar Sharif - BSPCB","05-10-2025 09:00:00",25.204762,85.514960,OZONE,17,42,30
India,Bihar,Buxar,"Charitra Van, Buxar - BSPCB","05-10-2025 09:00:00",25.567520,83.966379,PM10,NA,NA,NA
India,Bihar,Buxar,"Charitra Van, Buxar - BSPCB","05-10-2025 09:00:00",25.567520,83.966379,NH3,NA,NA,NA
India,Bihar,Buxar,"Charitra Van, Buxar - BSPCB","05-10-2025 09:00:00",25.567520,83.966379,SO2,NA,NA,NA
India,Andhra_Pradesh,Tirumala,"Toll Gate, Tirumala - APPCB","05-10-2025 09:00:00",13.67,79.35,CO,19,40,25
India,Andhra_Pradesh,Tirupati,"Vaikuntapuram, Tirupati - APPCB","05-10-2025 09:00:00",13.615387,79.409230,PM10,44,62,53
India,Andhra_Pradesh,Tirupati,"Vaikuntapuram, Tirupati - APPCB","05-10-2025 09:00:00",13.615387,79.409230,NO2,7,8,8
India,Andhra_Pradesh,Vijayawada,"HB Colony, Vijayawada - APPCB","05-10-2025 09:00:00",16.536107,80.594233,SO2,10,17,11
India,Andhra_Pradesh,Vijayawada,"HB Colony, Vijayawada - APPCB","05-10-2025 09:00:00",16.536107,80.594233,CO,21,37,21
India,Andhra_Pradesh,Visakhapatnam,"GVM Corporation, Visakhapatnam - APPCB","05-10-2025 09:00:00",17.72,83.3,SO2,5,11,8
India,Andhra_Pradesh,Visakhapatnam,"GVM Corporation, Visakhapatnam - APPCB","05-10-2025 09:00:00",17.72,83.3,CO,16,50,22
India,Andhra_Pradesh,Visakhapatnam,"GVM Corporation, Visakhapatnam - APPCB","05-10-2025 09:00:00",17.72,83.3,OZONE,6,36,7
India,Arunachal_Pradesh,Naharlagun,"Naharlagun, Naharlagun - APSPCB","05-10-2025 09:00:00",27.103358,93.679645,PM10,4,37,17
India,Arunachal_Pradesh,Naharlagun,"Naharlagun, Naharlagun - APSPCB","05-10-2025 09:00:00",27.103358,93.679645,SO2,7,8,8
India,Assam,Silchar,"Tarapur, Silchar - PCBA","05-10-2025 09:00:00",24.82827,92.79525,CO,34,45,38
India,Assam,Sivasagar,"Girls College, Sivasagar - PCBA","05-10-2025 09:00:00",26.987634,94.636574,PM10,17,27,20
India,Assam,Sivasagar,"Girls College, Sivasagar - PCBA","05-10-2025 09:00:00",26.987634,94.636574,CO,11,20,14
India,Bihar,Araria,"Kharahiya Basti, Araria - BSPCB","05-10-2025 09:00:00",26.146529,87.454184,SO2,9,22,17
India,Andhra_Pradesh,Chittoor,"Gangineni Cheruvu, Chittoor - APPCB","05-10-2025 09:00:00",13.204880,79.097889,PM10,NA,NA,NA
India,Andhra_Pradesh,Chittoor,"Gangineni Cheruvu, Chittoor - APPCB","05-10-2025 09:00:00",13.204880,79.097889,SO2,NA,NA,NA
India,Andhra_Pradesh,Rajamahendravaram,"Anand Kala Kshetram, Rajamahendravaram - APPCB","05-10-2025 09:00:00",16.9872867,81.7363176,PM2.5,9,54,27
India,Arunachal_Pradesh,Naharlagun,"Naharlagun, Naharlagun - APSPCB","05-10-2025 09:00:00",27.103358,93.679645,OZONE,4,5,5
India,Assam,Byrnihat,"Central Academy for SFS, Byrnihat - PCBA","05-10-2025 09:00:00",26.071318,91.87488,PM10,NA,NA,NA
India,Bihar,Gaya,"Collectorate, Gaya - BSPCB","05-10-2025 09:00:00",24.7955,84.9994,NO2,NA,NA,NA
India,Bihar,Gaya,"Collectorate, Gaya - BSPCB","05-10-2025 09:00:00",24.7955,84.9994,SO2,NA,NA,NA
India,Bihar,Gaya,"Kareemganj, Gaya - BSPCB","05-10-2025 09:00:00",24.792403,84.992416,PM10,9,80,36
India,Bihar,Gaya,"Kareemganj, Gaya - BSPCB","05-10-2025 09:00:00",24.792403,84.992416,SO2,15,17,16
India,Bihar,Muzaffarpur,"MIT-Daudpur Kothi, Muzaffarpur - BSPCB","05-10-2025 09:00:00",26.1403345,85.3650192,NH3,NA,NA,NA
India,Bihar,Muzaffarpur,"MIT-Daudpur Kothi, Muzaffarpur - BSPCB","05-10-2025 09:00:00",26.1403345,85.3650192,OZONE,8,16,15
India,Bihar,Muzaffarpur,"Muzaffarpur Collectorate, Muzaffarpur - BSPCB","05-10-2025 09:00:00",26.1209,85.3647,NO2,3,9,7
India,Bihar,Patna,"Govt. High School Shikarpur, Patna - BSPCB","05-10-2025 09:00:00",25.592539,85.227158,NH3,4,5,5
India,Bihar,Patna,"Govt. High School Shikarpur, Patna - BSPCB","05-10-2025 09:00:00",25.592539,85.227158,SO2,3,95,14
India,Bihar,Kishanganj,"SDM Office_Khagra, Kishanganj - BSPCB","05-10-2025 09:00:00",26.0881305,87.93840336,PM2.5,NA,NA,NA
India,Bihar,Kishanganj,"SDM Office_Khagra, Kishanganj - BSPCB","05-10-2025 09:00:00",26.0881305,87.93840336,SO2,NA,NA,NA
India,Bihar,Patna,"IGSC Planetarium Complex, Patna - BSPCB","05-10-2025 09:00:00",25.610369,85.132568,OZONE,45,49,47
India,Bihar,Hajipur,"Industrial Area, Hajipur - BSPCB","05-10-2025 09:00:00",25.697189,85.245900,PM10,12,42,26
India,Bihar,Patna,"DRM Office Danapur, Patna - BSPCB","05-10-2025 09:00:00",25.586562,85.043586,SO2,NA,NA,NA
India,Bihar,Gaya,"Kareemganj, Gaya - BSPCB","05-10-2025 09:00:00",24.792403,84.992416,OZONE,2,22,4
India,Bihar,Gaya,"SFTI Kusdihra, Gaya - BSPCB","05-10-2025 09:00:00",24.762518,84.982348,NH3,3,4,3
India,Bihar,Munger,"Town Hall, Munger - BSPCB","05-10-2025 09:00:00",25.376776,86.471523,NH3,NA,NA,NA
India,Chandigarh,Chandigarh,"Sector-25, Chandigarh - CPCC","05-10-2025 09:00:00",30.751462,76.762879,NH3,5,9,7
India,Chandigarh,Chandigarh,"Sector-53, Chandigarh - CPCC","05-10-2025 09:00:00",30.719859,76.738637,CO,32,66,51
India,Chhattisgarh,Bhilai,"32Bungalows, Bhilai - CECB","05-10-2025 09:00:00",21.194815,81.314770,NO2,1,10,4
India,Chhattisgarh,Bhilai,"32Bungalows, Bhilai - CECB","05-10-2025 09:00:00",21.194815,81.314770,NH3,5,5,5
India,Chhattisgarh,Bhilai,"32Bungalows, Bhilai - CECB","05-10-2025 09:00:00",21.194815,81.314770,CO,10,18,11
India,Chhattisgarh,Bhilai,"Civic Center, Bhilai - Bhilai Steel Plant","05-10-2025 09:00:00",21.185571,81.343175,PM2.5,14,36,25
India,Chhattisgarh,Bhilai,"Civic Center, Bhilai - Bhilai Steel Plant","05-10-2025 09:00:00",21.185571,81.343175,PM10,20,32,26
India,Chhattisgarh,Bhilai,"Hathkhoj, Bhilai - CECB","05-10-2025 09:00:00",21.224231,81.408350,OZONE,11,20,14
India,Chhattisgarh,Bilaspur,"Mangala, Bilaspur - NTPC","05-10-2025 09:00:00",22.08815,82.13737,PM10,6,40,19
India,Chhattisgarh,Bilaspur,"Mangala, Bilaspur - NTPC","05-10-2025 09:00:00",22.08815,82.13737,NO2,18,23,21
India,Chhattisgarh,Bilaspur,"Mangala, Bilaspur - NTPC","05-10-2025 09:00:00",22.08815,82.13737,SO2,11,16,14
India,Chhattisgarh,Bilaspur,"Mangala, Bilaspur - NTPC","05-10-2025 09:00:00",22.08815,82.13737,CO,28,41,30
India,Chhattisgarh,Chhal,"Nawapara SECL Colony, Chhal - CECB","05-10-2025 09:00:00",22.118125,83.140608,PM2.5,2,20,10
India,Bihar,Patna,"Muradpur, Patna - BSPCB","05-10-2025 09:00:00",25.619651,85.147382,OZONE,5,40,5
India,Bihar,Patna,"Rajbansi Nagar, Patna - BSPCB","05-10-2025 09:00:00",25.599486,85.113666,PM10,NA,NA,NA
India,Bihar,Patna,"Rajbansi Nagar, Patna - BSPCB","05-10-2025 09:00:00",25.599486,85.113666,NH3,NA,NA,NA
India,Bihar,Purnia,"Mariam Nagar, Purnia - BSPCB","05-10-2025 09:00:00",25.366336,87.117468,NO2,4,6,6
India,Bihar,Purnia,"Mariam Nagar, Purnia - BSPCB","05-10-2025 09:00:00",25.366336,87.117468,SO2,1,40,5
India,Bihar,Rajgir,"Dangi Tola, Rajgir - BSPCB","05-10-2025 09:00:00",25.03280,85.41948,PM2.5,57,70,62
India,Bihar,Samastipur,"DM Office_Kasipur, Samastipur - BSPCB","05-10-2025 09:00:00",25.859655,85.77944,PM2.5,NA,NA,NA
India,Bihar,Samastipur,"DM Office_Kasipur, Samastipur - BSPCB","05-10-2025 09:00:00",25.859655,85.77944,NO2,6,9,8
India,Bihar,Samastipur,"DM Office_Kasipur, Samastipur - BSPCB","05-10-2025 09:00:00",25.859655,85.77944,CO,1,36,8
India,Bihar,Samastipur,"DM Office_Kasipur, Samastipur - BSPCB","05-10-2025 09:00:00",25.859655,85.77944,OZONE,6,11,6
India,Bihar,Sasaram,"Dada Peer, Sasaram - BSPCB","05-10-2025 09:00:00",24.952822,84.002396,NO2,2,3,2
India,Chhattisgarh,Raipur,"Bhatagaon New ISBT, Raipur - CECB","05-10-2025 09:00:00",21.219665,81.630094,NH3,2,2,2
India,Chhattisgarh,Raipur,"Krishak Nagar, Raipur - CECB","05-10-2025 09:00:00",21.237755,81.705301,SO2,NA,NA,NA
India,Chhattisgarh,Raipur,"Siltara Phase-II, Raipur - CECB","05-10-2025 09:00:00",21.371751,81.664929,OZONE,5,9,7
India,Chhattisgarh,Korba,"Urja Nagar, Korba - CECB","05-10-2025 09:00:00",22.348441,82.549611,NH3,1,2,2
India,Chhattisgarh,Kunjemura,"OP Jindal School, Kunjemura - CECB","05-10-2025 09:00:00",22.126650,83.483212,CO,22,32,28
India,Chhattisgarh,Kunjemura,"OP Jindal School, Kunjemura - CECB","05-10-2025 09:00:00",22.126650,83.483212,OZONE,7,11,10
India,Chhattisgarh,Raipur,"AIIMS, Raipur - CECB","05-10-2025 09:00:00",21.258815,81.578979,CO,20,33,23
India,Chhattisgarh,Raipur,"AIIMS, Raipur - CECB","05-10-2025 09:00:00",21.258815,81.578979,OZONE,5,8,6
India,Chhattisgarh,Raipur,"Bhatagaon New ISBT, Raipur - CECB","05-10-2025 09:00:00",21.219665,81.630094,PM2.5,9,19,13
India,Chandigarh,Chandigarh,"Sector 22, Chandigarh - CPCC","05-10-2025 09:00:00",30.735567,76.775714,SO2,1,7,5
India,Chandigarh,Chandigarh,"Sector-25, Chandigarh - CPCC","05-10-2025 09:00:00",30.751462,76.762879,PM10,51,93,72
India,Chandigarh,Chandigarh,"Sector-25, Chandigarh - CPCC","05-10-2025 09:00:00",30.751462,76.762879,NO2,8,20,13
India,Chhattisgarh,Tumidih,"OP Jindal Industrial Park, Tumidih - CECB","05-10-2025 09:00:00",22.06631475,83.33820077,NO2,7,44,18
India,Chhattisgarh,Tumidih,"OP Jindal Industrial Park, Tumidih - CECB","05-10-2025 09:00:00",22.06631475,83.33820077,SO2,5,7,6
India,Chhattisgarh,Tumidih,"OP Jindal Industrial Park, Tumidih - CECB","05-10-2025 09:00:00",22.06631475,83.33820077,OZONE,5,20,9
India,Chhattisgarh,Chhal,"Nawapara SECL Colony, Chhal - CECB","05-10-2025 09:00:00",22.118125,83.140608,SO2,7,24,11
India,Chhattisgarh,Korba,"Rampur, Korba - CECB","05-10-2025 09:00:00",22.368195,82.746431,OZONE,NA,NA,NA
India,Delhi,Delhi,"Lodhi Road, Delhi - IMD","05-10-2025 09:00:00",28.5918245,77.2273074,NO2,18,164,73
India,Delhi,Delhi,"Major Dhyan Chand National Stadium, Delhi - DPCC","05-10-2025 09:00:00",28.611281,77.237738,PM10,88,177,127
India,Delhi,Delhi,"Major Dhyan Chand National Stadium, Delhi - DPCC","05-10-2025 09:00:00",28.611281,77.237738,NH3,14,17,15
India,Delhi,Delhi,"Major Dhyan Chand National Stadium, Delhi - DPCC","05-10-2025 09:00:00",28.611281,77.237738,SO2,4,14,8
India,Delhi,Delhi,"Dwarka-Sector 8, Delhi - DPCC ","05-10-2025 09:00:00",28.5710274,77.0719006,NH3,6,10,8
India,Delhi,Delhi,"IGI Airport (T3), Delhi - IMD","05-10-2025 09:00:00",28.5627763,77.1180053,PM2.5,56,160,101
India,Delhi,Delhi,"IHBAS, Dilshad Garden, Delhi - CPCB","05-10-2025 09:00:00",28.6811736,77.3025234,PM2.5,123,221,171
India,Delhi,Delhi,"Alipur, Delhi - DPCC","05-10-2025 09:00:00",28.815329,77.153010,SO2,3,10,7
India,Delhi,Delhi,"Alipur, Delhi - DPCC","05-10-2025 09:00:00",28.815329,77.153010,OZONE,9,56,11
India,Delhi,Delhi,"Anand Vihar, Delhi - DPCC","05-10-2025 09:00:00",28.647622,77.3158090,PM2.5,70,273,145
India,Delhi,Delhi,"Anand Vihar, Delhi - DPCC","05-10-2025 09:00:00",28.647622,77.3158090,SO2,7,68,29
India,Delhi,Delhi,"Aya Nagar, Delhi - IMD","05-10-2025 09:00:00",28.4706914,77.1099364,OZONE,12,110,27
India,Delhi,Delhi,"Bawana, Delhi - DPCC","05-10-2025 09:00:00",28.776200,77.051074,PM2.5,90,382,235
India,Delhi,Delhi,"Bawana, Delhi - DPCC","05-10-2025 09:00:00",28.776200,77.051074,SO2,8,15,10
India,Delhi,Delhi,"Mandir Marg, Delhi - DPCC","05-10-2025 09:00:00",28.636429,77.201067,PM2.5,45,324,132
India,Delhi,Delhi,"Mandir Marg, Delhi - DPCC","05-10-2025 09:00:00",28.636429,77.201067,PM10,58,222,112
India,Delhi,Delhi,"Mandir Marg, Delhi - DPCC","05-10-2025 09:00:00",28.636429,77.201067,SO2,11,96,41
India,Delhi,Delhi,"Mandir Marg, Delhi - DPCC","05-10-2025 09:00:00",28.636429,77.201067,OZONE,9,191,18
India,Delhi,Delhi,"DTU, Delhi - CPCB","05-10-2025 09:00:00",28.7500499,77.1112615,NH3,6,13,9
India,Delhi,Delhi,"Dr. Karni Singh Shooting Range, Delhi - DPCC","05-10-2025 09:00:00",28.498571,77.264840,PM10,69,193,130
India,Delhi,Delhi,"Jawaharlal Nehru Stadium, Delhi - DPCC","05-10-2025 09:00:00",28.580280,77.233829,CO,26,102,59
India,Delhi,Delhi,"Jawaharlal Nehru Stadium, Delhi - DPCC","05-10-2025 09:00:00",28.580280,77.233829,OZONE,2,8,4
India,Delhi,Delhi,"Jahangirpuri, Delhi - DPCC","05-10-2025 09:00:00",28.732820,77.170633,PM2.5,75,347,201
India,Delhi,Delhi,"Ashok Vihar, Delhi - DPCC","05-10-2025 09:00:00",28.695381,77.181665,SO2,13,21,17
India,Delhi,Delhi,"Pusa, Delhi - IMD","05-10-2025 09:00:00",28.636110,77.173332,PM10,56,183,121
India,Delhi,Delhi,"Pusa, Delhi - IMD","05-10-2025 09:00:00",28.636110,77.173332,CO,1,110,35
India,Delhi,Delhi,"R K Puram, Delhi - DPCC","05-10-2025 09:00:00",28.563262,77.186937,PM10,83,177,129
India,Delhi,Delhi,"R K Puram, Delhi - DPCC","05-10-2025 09:00:00",28.563262,77.186937,SO2,8,39,21
India,Delhi,Delhi,"Rohini, Delhi - DPCC","05-10-2025 09:00:00",28.732528,77.119920,NH3,8,9,9
India,Delhi,Delhi,"Najafgarh, Delhi - DPCC","05-10-2025 09:00:00",28.570173,76.933762,NH3,2,3,2
India,Delhi,Delhi,"Narela, Delhi - DPCC","05-10-2025 09:00:00",28.822836,77.101981,OZONE,6,72,11
India,Delhi,Delhi,"Nehru Nagar, Delhi - DPCC","05-10-2025 09:00:00",28.567890,77.250515,PM2.5,48,243,139
India,Delhi,Delhi,"Nehru Nagar, Delhi - DPCC","05-10-2025 09:00:00",28.567890,77.250515,NH3,5,12,9
India,Delhi,Delhi,"Punjabi Bagh, Delhi - DPCC","05-10-2025 09:00:00",28.674045,77.131023,PM10,97,212,147
India,Delhi,Delhi,"Punjabi Bagh, Delhi - DPCC","05-10-2025 09:00:00",28.674045,77.131023,OZONE,14,74,20
India,Delhi,Delhi,"Pusa, Delhi - DPCC","05-10-2025 09:00:00",28.639652,77.146275,PM2.5,78,327,158
India,Delhi,Delhi,"Nehru Nagar, Delhi - DPCC","05-10-2025 09:00:00",28.567890,77.250515,OZONE,4,150,13
India,Delhi,Delhi,"North Campus, DU, Delhi - IMD","05-10-2025 09:00:00",28.6573814,77.1585447,PM10,81,216,133
India,Delhi,Delhi,"Sirifort, Delhi - CPCB","05-10-2025 09:00:00",28.5504249,77.2159377,SO2,20,27,24
India,Delhi,Delhi,"Sonia Vihar, Delhi - DPCC","05-10-2025 09:00:00",28.710508,77.249485,CO,48,96,66
India,Delhi,Delhi,"Punjabi Bagh, Delhi - DPCC","05-10-2025 09:00:00",28.674045,77.131023,PM2.5,60,317,150
India,Delhi,Delhi,"Okhla Phase-2, Delhi - DPCC","05-10-2025 09:00:00",28.530785,77.271255,NH3,6,9,7
India,Delhi,Delhi,"Patparganj, Delhi - DPCC","05-10-2025 09:00:00",28.623763,77.287209,CO,16,84,42
India,Delhi,Delhi,"Mundka, Delhi - DPCC","05-10-2025 09:00:00",28.684678,77.076574,OZONE,4,77,11
India,Gujarat,Vapi,"Phase-1 GIDC, Vapi - GPCB","05-10-2025 09:00:00",20.362421,72.918013,NH3,10,10,10
India,Gujarat,Vatva,"Phase-4 GIDC, Vatva - GPCB","05-10-2025 09:00:00",22.969611,72.643500,PM2.5,NA,NA,NA
India,Gujarat,Vatva,"Phase-4 GIDC, Vatva - GPCB","05-10-2025 09:00:00",22.969611,72.643500,PM10,NA,NA,NA
India,Gujarat,Vatva,"Phase-4 GIDC, Vatva - GPCB","05-10-2025 09:00:00",22.969611,72.643500,SO2,NA,NA,NA
India,Haryana,Bahadurgarh,"Arya Nagar, Bahadurgarh - HSPCB","05-10-2025 09:00:00",28.6701,76.9254,NH3,11,15,12
India,Haryana,Bahadurgarh,"Arya Nagar, Bahadurgarh - HSPCB","05-10-2025 09:00:00",28.6701,76.9254,SO2,6,7,6
India,Delhi,Delhi,"Vivek Vihar, Delhi - DPCC","05-10-2025 09:00:00",28.672342,77.315260,PM10,92,159,128
India,Delhi,Delhi,"Wazirpur, Delhi - DPCC","05-10-2025 09:00:00",28.699793,77.165453,PM2.5,88,324,189
India,Delhi,Delhi,"Wazirpur, Delhi - DPCC","05-10-2025 09:00:00",28.699793,77.165453,NO2,8,107,71
India,Delhi,Delhi,"Wazirpur, Delhi - DPCC","05-10-2025 09:00:00",28.699793,77.165453,NH3,11,15,12
India,Gujarat,Ahmedabad,"Chandkheda, Ahmedabad - IITM","05-10-2025 09:00:00",23.107969,72.574648,PM10,17,53,37
India,Gujarat,Gandhinagar,"GIFT City, Gandhinagar - IITM","05-10-2025 09:00:00",23.163798,72.677768,NO2,7,32,16
India,Gujarat,Gandhinagar,"GIFT City, Gandhinagar - IITM","05-10-2025 09:00:00",23.163798,72.677768,NH3,1,6,3
India,Gujarat,Gandhinagar,"GIFT City, Gandhinagar - IITM","05-10-2025 09:00:00",23.163798,72.677768,OZONE,1,35,2
India,Gujarat,Gandhinagar,"IIPHG Lekawada, Gandhinagar - IITM","05-10-2025 09:00:00",23.243639,72.68994,NO2,2,10,5
India,Gujarat,Gandhinagar,"IIPHG Lekawada, Gandhinagar - IITM","05-10-2025 09:00:00",23.243639,72.68994,NH3,1,2,2
India,Gujarat,Gandhinagar,"Sector-10, Gandhinagar - GPCB","05-10-2025 09:00:00",23.221714,72.654328,PM10,30,135,72
India,Gujarat,Gandhinagar,"Sector-10, Gandhinagar - GPCB","05-10-2025 09:00:00",23.221714,72.654328,NH3,1,2,1
India,Gujarat,Gandhinagar,"Sector-10, Gandhinagar - GPCB","05-10-2025 09:00:00",23.221714,72.654328,SO2,2,10,6
India,Gujarat,Surat,"Science Center, Surat - SMC","05-10-2025 09:00:00",21.170046,72.795405,SO2,17,23,19
India,Gujarat,Ahmedabad,"SAC ISRO Satellite, Ahmedabad - IITM","05-10-2025 09:00:00",23.023389,72.515201,NH3,3,4,3
India,Gujarat,Ahmedabad,"SVPI Airport Hansol, Ahmedabad - IITM","05-10-2025 09:00:00",23.076793,72.627874,PM2.5,10,36,22
India,Gujarat,Ahmedabad,"Rakhial, Ahmedabad - IITM","05-10-2025 09:00:00",23.016834,72.625775,OZONE,2,17,5
India,Gujarat,Ahmedabad,"SAC ISRO Bopal, Ahmedabad - IITM","05-10-2025 09:00:00",23.041137,72.456691,PM2.5,6,42,24
India,Gujarat,Ahmedabad,"Gyaspur, Ahmedabad - IITM","05-10-2025 09:00:00",22.977134,72.553024,OZONE,57,97,65
India,Gujarat,Ahmedabad,"Maninagar, Ahmedabad - GPCB","05-10-2025 09:00:00",23.002657,72.591912,PM2.5,NA,NA,NA
India,Gujarat,Ahmedabad,"Chandkheda, Ahmedabad - IITM","05-10-2025 09:00:00",23.107969,72.574648,NH3,6,14,8
India,Gujarat,Ahmedabad,"Chandkheda, Ahmedabad - IITM","05-10-2025 09:00:00",23.107969,72.574648,SO2,2,14,9
India,Haryana,Bhiwani,"H.B. Colony, Bhiwani - HSPCB","05-10-2025 09:00:00",28.806223,76.141105,PM2.5,20,35,26
India,Haryana,Dharuhera,"Municipal Corporation Office, Dharuhera -  HSPCB","05-10-2025 09:00:00",28.206800,76.799700,PM10,NA,NA,NA
India,Haryana,Dharuhera,"Municipal Corporation Office, Dharuhera -  HSPCB","05-10-2025 09:00:00",28.206800,76.799700,SO2,NA,NA,NA
India,Haryana,Faridabad,"New Industrial Town, Faridabad - HSPCB","05-10-2025 09:00:00",28.39072,77.30059,PM10,111,118,113
India,Haryana,Faridabad,"New Industrial Town, Faridabad - HSPCB","05-10-2025 09:00:00",28.39072,77.30059,NO2,23,26,25
India,Haryana,Faridabad,"New Industrial Town, Faridabad - HSPCB","05-10-2025 09:00:00",28.39072,77.30059,SO2,8,8,8
India,Haryana,Faridabad,"New Industrial Town, Faridabad - HSPCB","05-10-2025 09:00:00",28.39072,77.30059,CO,10,13,12
India,Haryana,Jind,"Police Lines, Jind - HSPCB","05-10-2025 09:00:00",29.307814,76.337619,NH3,4,5,5
India,Haryana,Jind,"Police Lines, Jind - HSPCB","05-10-2025 09:00:00",29.307814,76.337619,SO2,9,10,9
India,Haryana,Karnal,"Sector-12, Karnal - HSPCB","05-10-2025 09:00:00",29.695300,77.002700,PM10,51,204,100
India,Haryana,Mandikhera,"General Hospital, Mandikhera - HSPCB","05-10-2025 09:00:00",27.9002,76.9938,NO2,45,86,76
India,Haryana,Palwal,"Shyam Nagar, Palwal - HSPCB","05-10-2025 09:00:00",28.1485564,77.3320667,NO2,23,25,24
India,Haryana,Palwal,"Shyam Nagar, Palwal - HSPCB","05-10-2025 09:00:00",28.1485564,77.3320667,OZONE,23,25,24
India,Haryana,Panchgaon,"Amity University, Panchgaon - IITM","05-10-2025 09:00:00",28.3153,76.9143,PM10,39,195,102
India,Haryana,Panchgaon,"Amity University, Panchgaon - IITM","05-10-2025 09:00:00",28.3153,76.9143,NH3,1,6,3
India,Haryana,Gurugram,"NISE Gwal Pahari, Gurugram - IMD","05-10-2025 09:00:00",28.422681,77.148944,OZONE,14,17,15
India,Haryana,Gurugram,"Sector-51, Gurugram - HSPCB","05-10-2025 09:00:00",28.4227,77.0667,OZONE,2,33,4
India,Haryana,Gurugram,"Vikas Sadan, Gurugram - HSPCB","05-10-2025 09:00:00",28.4501238,77.0263051,PM2.5,33,500,231
India,Haryana,Bhiwani,"H.B. Colony, Bhiwani - HSPCB","05-10-2025 09:00:00",28.806223,76.141105,CO,10,14,12
India,Haryana,"Charkhi Dadri","Mini Secretariat, Charkhi Dadri - HSPCB","05-10-2025 09:00:00",28.593883,76.270653,PM10,30,152,94
India,Haryana,"Charkhi Dadri","Mini Secretariat, Charkhi Dadri - HSPCB","05-10-2025 09:00:00",28.593883,76.270653,NH3,5,8,6
India,Haryana,Rohtak,"MD University, Rohtak - HSPCB","05-10-2025 09:00:00",28.52123,76.37138,PM10,86,116,102
India,Haryana,Rohtak,"MD University, Rohtak - HSPCB","05-10-2025 09:00:00",28.52123,76.37138,SO2,6,8,7
India,Haryana,Sirsa,"F-Block, Sirsa - HSPCB","05-10-2025 09:00:00",29.536400,75.015800,PM2.5,20,140,50
India,Haryana,Panipat,"Sector-18, Panipat - HSPCB","05-10-2025 09:00:00",29.432304,76.972765,NH3,NA,NA,NA
India,Haryana,Panipat,"Sector-18, Panipat - HSPCB","05-10-2025 09:00:00",29.432304,76.972765,SO2,5,19,7
India,Haryana,Manesar,"Sector-2 IMT, Manesar - HSPCB","05-10-2025 09:00:00",28.360699,76.936090,CO,20,58,46
India,Haryana,Faridabad,"Sector 30, Faridabad - HSPCB","05-10-2025 09:00:00",28.4417,77.3217,SO2,6,6,6
India,Karnataka,Bengaluru,"Hebbal, Bengaluru - KSPCB","05-10-2025 09:00:00",13.029152,77.585901,SO2,1,5,2
India,Karnataka,Bengaluru,"Hebbal, Bengaluru - KSPCB","05-10-2025 09:00:00",13.029152,77.585901,OZONE,7,8,7
India,Karnataka,Bengaluru,"Hombegowda Nagar, Bengaluru - KSPCB","05-10-2025 09:00:00",12.938539,77.590100,NO2,10,40,18
India,Karnataka,Bengaluru,"Hombegowda Nagar, Bengaluru - KSPCB","05-10-2025 09:00:00",12.938539,77.590100,CO,11,133,18
India,Karnataka,Bengaluru,"Peenya, Bengaluru - CPCB","05-10-2025 09:00:00",13.0270199,77.494094,NO2,18,24,21
India,Haryana,Sirsa,"F-Block, Sirsa - HSPCB","05-10-2025 09:00:00",29.536400,75.015800,NO2,30,116,66
India,Haryana,Sirsa,"F-Block, Sirsa - HSPCB","05-10-2025 09:00:00",29.536400,75.015800,OZONE,10,34,19
India,"Himachal Pradesh",Baddi,"HIMUDA Complex Phase-1, Baddi - HPPCB","05-10-2025 09:00:00",30.943887,76.801991,NO2,14,85,40
India,Karnataka,Bagalkot,"Vidayagiri, Bagalkot - KSPCB","05-10-2025 09:00:00",16.172806,75.659694,PM2.5,33,35,34
India,Karnataka,Bagalkot,"Vidayagiri, Bagalkot - KSPCB","05-10-2025 09:00:00",16.172806,75.659694,NH3,1,2,1
India,Karnataka,Bengaluru,"Bapuji Nagar, Bengaluru - KSPCB","05-10-2025 09:00:00",12.951913,77.539784,NO2,5,40,11
India,Karnataka,Bengaluru,"Peenya, Bengaluru - CPCB","05-10-2025 09:00:00",13.0270199,77.494094,NH3,2,3,2
India,Karnataka,Bengaluru,"RVCE-Mailasandra, Bengaluru - KSPCB","05-10-2025 09:00:00",12.921418,77.502466,PM2.5,NA,NA,NA
India,Karnataka,Bengaluru,"Shivapura_Peenya, Bengaluru - KSPCB","05-10-2025 09:00:00",13.0246342,77.5080115,NH3,4,4,4
India,Karnataka,Bengaluru,"Shivapura_Peenya, Bengaluru - KSPCB","05-10-2025 09:00:00",13.0246342,77.5080115,CO,26,86,45
India,Jammu_and_Kashmir,Srinagar,"Rajbagh, Srinagar - JKSPCB","05-10-2025 09:00:00",34.066206,74.819820,PM2.5,28,53,38
India,Jharkhand,Dhanbad,"Sardar Patel Nagar, Dhanbad - JSPCB","05-10-2025 09:00:00",23.80569,86.44268,CO,3,68,38
India,Karnataka,Bengaluru,"Silk Board, Bengaluru - KSPCB","05-10-2025 09:00:00",12.917348,77.622813,NH3,NA,NA,NA
India,Karnataka,Chamarajanagar,"Urban, Chamarajanagar - KSPCB","05-10-2025 09:00:00",11.55358,76.55521,SO2,5,5,5
India,Karnataka,Karwar,"KHB Colony, Karwar - KSPCB","05-10-2025 09:00:00",14.816666,74.141003,NO2,6,9,7
India,Karnataka,Koppal,"Diwator Nagar, Koppal - KSPCB","05-10-2025 09:00:00",15.347630,76.181767,OZONE,11,15,14
India,Karnataka,Madikeri,"Stuart Hill, Madikeri - KSPCB","05-10-2025 09:00:00",12.415911,75.735050,PM2.5,23,55,36
India,Karnataka,Madikeri,"Stuart Hill, Madikeri - KSPCB","05-10-2025 09:00:00",12.415911,75.735050,PM10,24,43,32
India,Karnataka,Madikeri,"Stuart Hill, Madikeri - KSPCB","05-10-2025 09:00:00",12.415911,75.735050,SO2,7,7,7
India,Karnataka,Madikeri,"Stuart Hill, Madikeri - KSPCB","05-10-2025 09:00:00",12.415911,75.735050,OZONE,2,7,4
India,Karnataka,Mysuru,"Hebbal 1st Stage, Mysuru - KSPCB","05-10-2025 09:00:00",12.21041,76.37376,PM10,23,47,34
India,Karnataka,Mysuru,"Hebbal 1st Stage, Mysuru - KSPCB","05-10-2025 09:00:00",12.21041,76.37376,CO,3,35,10
India,Karnataka,Ramanagara,"Vijay Nagar, Ramanagara - KSPCB","05-10-2025 09:00:00",12.733409,77.298051,PM10,NA,NA,NA
India,Karnataka,Ramanagara,"Vijay Nagar, Ramanagara - KSPCB","05-10-2025 09:00:00",12.733409,77.298051,SO2,NA,NA,NA
India,Karnataka,Kalaburagi,"Mahatma Basaveswar Colony, Kalaburgi - KSPCB","05-10-2025 09:00:00",17.336318,76.847397,OZONE,8,13,13
India,Karnataka,Karwar,"KHB Colony, Karwar - KSPCB","05-10-2025 09:00:00",14.816666,74.141003,PM2.5,2,25,9
India,Karnataka,Vijayapura,"Ibrahimpur, Vijayapura - KSPCB","05-10-2025 09:00:00",16.802639,75.722694,PM10,43,45,44
India,Karnataka,Vijayapura,"Ibrahimpur, Vijayapura - KSPCB","05-10-2025 09:00:00",16.802639,75.722694,NO2,9,11,9
India,Karnataka,Hubballi,"Lingaraj Nagar, Hubballi - KSPCB","05-10-2025 09:00:00",15.3714823,75.1160168,NH3,1,2,1
India,Karnataka,Hubballi,"Lingaraj Nagar, Hubballi - KSPCB","05-10-2025 09:00:00",15.3714823,75.1160168,SO2,1,1,1
India,Karnataka,Chikkaballapur,"Chikkaballapur Rural, Chikkaballapur - KSPCB","05-10-2025 09:00:00",13.428828,77.731418,OZONE,26,174,138
India,Karnataka,Chikkamagaluru,"Kalyana Nagara, Chikkamagaluru - KSPCB","05-10-2025 09:00:00",13.328028,75.797056,SO2,NA,NA,NA
India,Karnataka,Hubballi,"Lingaraj Nagar, Hubballi - KSPCB","05-10-2025 09:00:00",15.3714823,75.1160168,PM10,43,48,46
India,Karnataka,Shivamogga,"Vinoba Nagara, Shivamogga - KSPCB","05-10-2025 09:00:00",13.940000,75.555917,NO2,10,30,17
India,Karnataka,Yadgir,"Collector Office, Yadgir - KSPCB","05-10-2025 09:00:00",16.7602,77.1428,NH3,NA,NA,NA
India,"Madhya Pradesh",Dewas,"Bhopal Chauraha, Dewas - MPPCB","05-10-2025 09:00:00",22.9682591,76.064118,PM10,52,77,63
India,"Madhya Pradesh",Gwalior,"City Center, Gwalior - MPPCB","05-10-2025 09:00:00",26.203442,78.193251,SO2,2,38,26
India,"Madhya Pradesh",Gwalior,"City Center, Gwalior - MPPCB","05-10-2025 09:00:00",26.203442,78.193251,CO,20,96,23
India,"Madhya Pradesh",Gwalior,"City Center, Gwalior - MPPCB","05-10-2025 09:00:00",26.203442,78.193251,OZONE,21,59,22
India,"Madhya Pradesh",Gwalior,"Deen Dayal Nagar, Gwalior - MPPCB","05-10-2025 09:00:00",26.259242,78.216432,PM2.5,7,100,42
India,Kerala,Eloor,"Udyogamandal, Eloor - Kerala PCB","05-10-2025 09:00:00",10.073232,76.302765,CO,22,150,47
India,Kerala,Kannur,"Thavakkara, Kannur - Kerala PCB","05-10-2025 09:00:00",11.875000,75.373200,NH3,2,2,2
India,Kerala,Kannur,"Thavakkara, Kannur - Kerala PCB","05-10-2025 09:00:00",11.875000,75.373200,OZONE,28,33,28
India,"Madhya Pradesh",Bhopal,"Idgah Hills, Bhopal - MPPCB","05-10-2025 09:00:00",23.264759,77.381568,OZONE,16,58,21
India,"Madhya Pradesh",Bhopal,"Paryavaran Parisar, Bhopal - MPPCB","05-10-2025 09:00:00",23.210494,77.425409,PM2.5,25,47,35
India,"Madhya Pradesh",Bhopal,"Paryavaran Parisar, Bhopal - MPPCB","05-10-2025 09:00:00",23.210494,77.425409,SO2,8,17,13
India,Kerala,Thrissur,"Corporation Ground, Thrissur - Kerala PCB","05-10-2025 09:00:00",10.532400,76.215900,OZONE,27,28,28
India,"Madhya Pradesh",Bhopal,"Idgah Hills, Bhopal - MPPCB","05-10-2025 09:00:00",23.264759,77.381568,NH3,3,10,5
India,Kerala,Thiruvananthapuram,"Kariavattom, Thiruvananthapuram - Kerala PCB","05-10-2025 09:00:00",8.563700,76.886500,PM2.5,39,49,42
India,Kerala,Thiruvananthapuram,"Kariavattom, Thiruvananthapuram - Kerala PCB","05-10-2025 09:00:00",8.563700,76.886500,NH3,1,1,1
India,Kerala,Thiruvananthapuram,"Kariavattom, Thiruvananthapuram - Kerala PCB","05-10-2025 09:00:00",8.563700,76.886500,OZONE,36,37,36
India,"Madhya Pradesh",Bhopal,"T T Nagar, Bhopal - MPPCB","05-10-2025 09:00:00",23.233584,77.400574,SO2,9,18,15
India,"Madhya Pradesh",Dewas,"Bhopal Chauraha, Dewas - MPPCB","05-10-2025 09:00:00",22.9682591,76.064118,PM2.5,28,53,40
India,"Madhya Pradesh",Gwalior,"Deen Dayal Nagar, Gwalior - MPPCB","05-10-2025 09:00:00",26.259242,78.216432,NO2,3,61,18
India,"Madhya Pradesh",Gwalior,"Deen Dayal Nagar, Gwalior - MPPCB","05-10-2025 09:00:00",26.259242,78.216432,SO2,10,17,12
India,"Madhya Pradesh",Bhopal,"T T Nagar, Bhopal - MPPCB","05-10-2025 09:00:00",23.233584,77.400574,PM2.5,28,55,39
India,"Madhya Pradesh",Bhopal,"T T Nagar, Bhopal - MPPCB","05-10-2025 09:00:00",23.233584,77.400574,NO2,16,39,22
India,Kerala,Eloor,"Udyogamandal, Eloor - Kerala PCB","05-10-2025 09:00:00",10.073232,76.302765,NO2,6,7,7
India,"Madhya Pradesh",Katni,"Gole Bazar, Katni - MPPCB","05-10-2025 09:00:00",23.50016,80.23284,CO,13,38,33
India,"Madhya Pradesh",Maihar,"Sahilara, Maihar - KJS Cements","05-10-2025 09:00:00",24.2613009,80.7231783,PM10,NA,NA,NA
India,"Madhya Pradesh",Maihar,"Sahilara, Maihar - KJS Cements","05-10-2025 09:00:00",24.2613009,80.7231783,SO2,6,6,6
India,"Madhya Pradesh",Mandideep,"Sector-D Industrial Area, Mandideep - MPPCB","05-10-2025 09:00:00",23.108440,77.511428,PM10,58,91,73
India,"Madhya Pradesh",Indore,"Residency Area, Indore - IMC","05-10-2025 09:00:00",22.7084,75.8815,OZONE,NA,NA,NA
India,"Madhya Pradesh",Jabalpur,"Govindh Bhavan Colony, Jabalpur - JMC","05-10-2025 09:00:00",23.163174,79.973061,PM10,19,44,30
India,"Madhya Pradesh",Jabalpur,"Govindh Bhavan Colony, Jabalpur - JMC","05-10-2025 09:00:00",23.163174,79.973061,NH3,1,2,1
India,"Madhya Pradesh",Indore,"Chhoti Gwaltoli, Indore - MPPCB","05-10-2025 09:00:00",22.4310,75.5213,CO,26,78,35
India,"Madhya Pradesh",Indore,"Maguda Nagar, Indore - IMC","05-10-2025 09:00:00",22.7524,75.8872,SO2,NA,NA,NA
India,"Madhya Pradesh",Indore,"Regional Park, Indore - IMC","05-10-2025 09:00:00",22.6780,75.8559,PM2.5,18,29,25
India,"Madhya Pradesh",Ratlam,"Shasthri Nagar, Ratlam - IPCA Lab","05-10-2025 09:00:00",23.331731,75.045981,NO2,35,36,35
India,"Madhya Pradesh",Sagar,"Civil Lines, Sagar - MPPCB","05-10-2025 09:00:00",23.838586,78.759431,PM2.5,18,84,45
India,"Madhya Pradesh",Mandideep,"Sector-D Industrial Area, Mandideep - MPPCB","05-10-2025 09:00:00",23.108440,77.511428,NH3,3,3,3
India,"Madhya Pradesh",Mandideep,"Sector-D Industrial Area, Mandideep - MPPCB","05-10-2025 09:00:00",23.108440,77.511428,SO2,6,30,11
India,"Madhya Pradesh",Gwalior,"Maharaj Bada, Gwalior - MPPCB","05-10-2025 09:00:00",26.200388,78.147714,CO,2,108,17
India,"Madhya Pradesh",Gwalior,"Maharaj Bada, Gwalior - MPPCB","05-10-2025 09:00:00",26.200388,78.147714,OZONE,18,36,22
India,"Madhya Pradesh",Jabalpur,"Marhatal, Jabalpur - MPPCB","05-10-2025 09:00:00",23.168606,79.932247,NH3,1,4,2
India,"Madhya Pradesh",Jabalpur,"Marhatal, Jabalpur - MPPCB","05-10-2025 09:00:00",23.168606,79.932247,SO2,5,20,13
India,"Madhya Pradesh",Jabalpur,"Govindh Bhavan Colony, Jabalpur - JMC","05-10-2025 09:00:00",23.163174,79.973061,OZONE,6,39,22
